,X,Y,StopID,NextRide,Location,Juris,WaterFountain,ADA,Type_,ATIS_ID,Direction,Long,Lat,Routes,Zip,City,Address,State
0,-111.82307599054501,33.4147193304186,5182.0,16020.0,MESA DR & MAIN ST,Mesa,No,No,Standard,5196.0,Southbound,-111.82307599054501,33.4147193304186,120,,,,
1,-111.822765687811,33.4156843465566,2982.0,16001.0,MESA DR & MAIN ST,Mesa,No,No,LINK,2996.0,Northbound,-111.822765687811,33.4156843465566,120,,,,
2,-111.822934487577,33.4257343931201,4681.0,16016.0,MESA DR & 6TH ST,Mesa,No,Yes,Standard,4695.0,Southbound,-111.822934487577,33.4257343931201,120,,,,
3,-111.823047726262,33.422047998516696,4682.0,16017.0,MESA DR & UNIVERSITY DR,Mesa,No,Yes,Standard,4696.0,Southbound,-111.823047726262,33.422047998516696,120,,,,
4,-111.82306940586099,33.4168833504112,4679.0,16019.0,MESA DR & 1ST ST,Mesa,No,Yes,Standard,4693.0,Southbound,-111.82306940586099,33.4168833504112,120,,,,
5,-111.823097555623,33.410421331262896,5179.0,16021.0,MESA DR & 2ND AVE,Mesa,No,No,Standard,5193.0,Southbound,-111.823097555623,33.410421331262896,120,,,,
6,-111.823089922458,33.4074277625267,5180.0,16022.0,MESA DR & BROADWAY RD,Mesa,No,Yes,Standard,5194.0,Southbound,-111.823089922458,33.4074277625267,120,,,,
7,-111.823079297327,33.4031017973098,5183.0,16023.0,MESA DR & MARILYN AVE,Mesa,No,Yes,Standard,5197.0,Southbound,-111.823079297327,33.4031017973098,120,,,,
8,-111.823868566666,33.3824668341569,8025.0,16027.0,COURY AVE & MESA DR,Mesa,No,No,Standard,9811.0,Westbound,-111.823868566666,33.3824668341569,120,,,,
9,-111.828464699819,33.3822251795024,5152.0,15991.0,LEWIS & COURY AVE,Mesa,No,Yes,Standard,5166.0,Southbound,-111.828464699819,33.3822251795024,120,,,,
10,-111.827483801307,33.380348306545,438.0,15992.0,JAVALINA AVE & LEWIS,Mesa,No,Yes,Standard,454.0,Eastbound,-111.827483801307,33.380348306545,120,,,,
11,-111.82293846782801,33.3826046642914,3438.0,15993.0,MESA DR & COURY AVE,Mesa,No,Yes,Standard,3452.0,Northbound,-111.82293846782801,33.3826046642914,120,,,,
12,-111.822832420086,33.4023387341046,3442.0,15998.0,MESA DR & FRANKLIN AVE,Mesa,No,Yes,Standard,3456.0,Northbound,-111.822832420086,33.4023387341046,120,,,,
13,-111.82288032464199,33.4080023337287,3441.0,15999.0,MESA DR & BROADWAY RD,Mesa,No,Yes,Standard,3455.0,Northbound,-111.82288032464199,33.4080023337287,120,,,,
14,-111.822835957329,33.4115779237804,3440.0,16000.0,MESA DR & 2ND AVE,Mesa,No,No,Standard,3454.0,Northbound,-111.822835957329,33.4115779237804,120,,,,
15,-111.82282073613199,33.4175379166453,2979.0,16002.0,MESA DR & 1ST ST,Mesa,No,No,Standard,2993.0,Northbound,-111.82282073613199,33.4175379166453,120,,,,
16,-111.822774285593,33.4197504857682,4678.0,16003.0,MESA DR & 2ND ST,Mesa,No,Yes,Standard,4692.0,Northbound,-111.822774285593,33.4197504857682,120,,,,
17,-111.82272050022499,33.4227915534926,2983.0,16004.0,MESA DR & UNIVERSITY DR,Mesa,No,Yes,Standard,2997.0,Northbound,-111.82272050022499,33.4227915534926,120,,,,
18,-111.82268269317301,33.426166560174195,2980.0,16006.0,MESA DR & 6TH ST,Mesa,No,Yes,Standard,2994.0,Northbound,-111.82268269317301,33.426166560174195,120,,,,
19,-111.82263243162599,33.430312682268,2981.0,16007.0,MESA DR & 8TH ST,Mesa,No,No,Standard,2995.0,Northbound,-111.82263243162599,33.430312682268,120,,,,
20,-111.822592020084,33.432192423379,2978.0,16008.0,MESA DR & 10TH ST,Mesa,No,No,Standard,2992.0,Northbound,-111.822592020084,33.432192423379,120,,,,
21,-111.82304327285802,33.435690366294196,5500.0,16009.0,BROWN RD & MESA DR,Mesa,No,Yes,Standard,5514.0,Westbound,-111.82304327285802,33.435690366294196,120,,,,
22,-111.828616690555,33.4350534651122,5505.0,16012.0,PASADENA & CENTER ST,Mesa,No,Yes,Standard,5519.0,Westbound,-111.828616690555,33.4350534651122,120,,,,
23,-111.831408161206,33.4345569085719,4499.0,16013.0,CENTER ST & BROWN ST,Mesa,No,Yes,Standard,4513.0,Southbound,-111.831408161206,33.4345569085719,120 | BUZZ,,,,
24,-111.83144260661699,33.4308594733828,4492.0,16510.0,CENTER ST & 8TH PL,Mesa,No,Yes,Standard,4506.0,Southbound,-111.83144260661699,33.4308594733828,120 | BUZZ,,,,
25,-111.801074954184,33.45080735204,7619.0,16105.0,JUNE ST & LAZONA DR,Mesa,No,No,Standard,7633.0,Westbound,-111.801074954184,33.45080735204,128,,,,
26,-111.80280259724199,33.4491701212933,5710.0,16106.0,LAZONA DR & STAPLEY DR,Mesa,No,No,Standard,5724.0,Westbound,-111.80280259724199,33.4491701212933,128,,,,
27,-111.80511857211201,33.4477097090088,4798.0,16107.0,STAPLEY DR & JENSEN ST,Mesa,No,No,Standard,4812.0,Southbound,-111.80511857211201,33.4477097090088,128,,,,
28,-111.80522083043002,33.4441285372074,4791.0,16108.0,STAPLEY DR & MCLELLAN RD,Mesa,No,No,Standard,4805.0,Southbound,-111.80522083043002,33.4441285372074,128,,,,
29,-111.80529112036999,33.441089413751605,4797.0,16109.0,STAPLEY DR & HALIFAX ST,Mesa,No,No,Standard,4811.0,Southbound,-111.80529112036999,33.441089413751605,128,,,,
30,-111.805417338394,33.4366314830577,4795.0,16110.0,STAPLEY DR & BROWN RD,Mesa,No,No,Standard,4809.0,Southbound,-111.805417338394,33.4366314830577,128,,,,
31,-111.805411958697,33.433809893361,4796.0,16111.0,STAPLEY DR & FAIRFIELD ST,Mesa,No,No,Standard,4810.0,Southbound,-111.805411958697,33.433809893361,128,,,,
32,-111.805406249358,33.4300153093271,4794.0,16112.0,STAPLEY DR & 8TH PL,Mesa,No,No,Standard,4808.0,Southbound,-111.805406249358,33.4300153093271,128,,,,
33,-111.805417707419,33.4254549755571,4793.0,16113.0,STAPLEY DR & 6TH ST,Mesa,No,No,Standard,4807.0,Southbound,-111.805417707419,33.4254549755571,128,,,,
34,-111.805414606689,33.422136200592,4799.0,16114.0,STAPLEY DR & UNIVERSITY DR,Mesa,No,Yes,Standard,4813.0,Southbound,-111.805414606689,33.422136200592,128,,,,
35,-111.80542148907,33.4186340916769,4792.0,16889.0,STAPLEY DR & 2ND ST,Mesa,No,No,Standard,4806.0,Southbound,-111.80542148907,33.4186340916769,128,,,,
36,-111.805436900532,33.414757262734604,5303.0,16116.0,STAPLEY DR & MAIN ST,Mesa,No,No,Standard,5317.0,Southbound,-111.805436900532,33.414757262734604,128,,,,
37,-111.80541216339701,33.4108651078293,5296.0,16117.0,STAPLEY DR & JARVIS AVE,Mesa,No,No,Standard,5310.0,Southbound,-111.80541216339701,33.4108651078293,128,,,,
38,-111.805462187148,33.4075185072117,5299.0,16118.0,STAPLEY DR & BROADWAY RD,Mesa,No,Yes,Standard,5313.0,Southbound,-111.805462187148,33.4075185072117,128,,,,
39,-111.80548580051001,33.4038907114484,5297.0,16119.0,STAPLEY DR & 6TH AVE,Mesa,No,No,Standard,5311.0,Southbound,-111.80548580051001,33.4038907114484,128,,,,
40,-111.805498007983,33.4003055379151,5298.0,16120.0,STAPLEY DR & 8TH AVE,Mesa,No,No,Standard,5312.0,Southbound,-111.805498007983,33.4003055379151,128,,,,
41,-111.805583336522,33.3960442921053,5300.0,16121.0,STAPLEY DR & EMERALD AVE,Mesa,No,No,Standard,5314.0,Southbound,-111.805583336522,33.3960442921053,128,,,,
42,-111.805594149011,33.3930144477176,5304.0,16122.0,STAPLEY DR & SOUTHERN AVE,Mesa,No,No,Standard,5318.0,Southbound,-111.805594149011,33.3930144477176,128,,,,
43,-111.80570783833599,33.3887780967489,5301.0,16123.0,STAPLEY DR & HARMONY AVE,Mesa,No,No,Standard,5315.0,Southbound,-111.80570783833599,33.3887780967489,128,,,,
44,-111.807044350975,33.3826457715732,8101.0,16084.0,INVERNESS AVE & STAPLEY DR,Mesa,No,No,Standard,9876.0,Westbound,-111.807044350975,33.3826457715732,128,,,,
45,-111.80703538828399,33.3794225228431,9467.0,16544.0,STAPLEY DR & BASELINE RD,Mesa,No,Yes,Standard,9877.0,Northbound,-111.80703538828399,33.3794225228431,128,,,,
46,-111.80563223312099,33.3826654306703,3103.0,16086.0,STAPLEY DR & INVERNESS AVE,Mesa,No,Yes,Standard,3117.0,Northbound,-111.80563223312099,33.3826654306703,128,,,,
47,-111.805343110646,33.3895314608751,3558.0,16087.0,STAPLEY DR & HILTON AVE,Mesa,No,Yes,Standard,3572.0,Northbound,-111.805343110646,33.3895314608751,128,,,,
48,-111.805299471252,33.3937681678118,3560.0,16088.0,STAPLEY DR & SOUTHERN AVE,Mesa,No,Yes,Standard,3574.0,Northbound,-111.805299471252,33.3937681678118,128,,,,
50,-111.787822349501,33.4336347362607,2888.0,16209.0,GILBERT RD & ENCANTO ST,Mesa,No,No,Standard,2902.0,Northbound,-111.787822349501,33.4336347362607,136,,,,
51,-111.78793510088998,33.427296394917995,2886.0,16207.0,GILBERT RD & DECATUR ST,Mesa,No,No,Standard,2900.0,Northbound,-111.78793510088998,33.427296394917995,136,,,,
53,-111.805168011162,33.415472988772,3105.0,16094.0,STAPLEY DR & MAIN ST,Mesa,No,No,Standard,3119.0,Northbound,-111.805168011162,33.415472988772,128,,,,
54,-111.78811149130199,33.4084077948636,3361.0,16201.0,GILBERT RD & BROADWAY RD,Mesa,No,Yes,Standard,3375.0,Northbound,-111.78811149130199,33.4084077948636,136,,,,
55,-111.788148795305,33.4297727157978,4596.0,16261.0,GILBERT RD & 8TH ST,Mesa,No,No,Standard,4610.0,Southbound,-111.788148795305,33.4297727157978,136,,,,
56,-111.68372347603001,33.4669116841607,9370.0,16469.0,N POWER RD & E MCDOWELL RD,Mesa,No,No,Standard,12018.0,Northbound,-111.68372347603001,33.4669116841607,184,,,,
58,-111.684106510612,33.437959002685105,3027.0,16741.0,POWER RD & BROWN RD,Mesa,No,No,Standard,3041.0,Northbound,-111.684106510612,33.437959002685105,184,,,,
59,-111.789450319354,33.459561816858894,9146.0,18270.0,N GILBERT RD & E HERMOSA VISTA,Mesa,No,No,Standard,11646.0,Northbound,-111.789450319354,33.459561816858894,136,,,,
70,-111.684600081481,33.426493029488,8886.0,16749.0,Power Rd & Decatur St,Mesa,No,No,Standard,11295.0,Southbound,-111.684600081481,33.426493029488,184,,,,
71,-111.68418339287201,33.4327292518043,3025.0,16740.0,POWER RD & ENSENADA ST,Mesa,No,No,Standard,3039.0,Northbound,-111.68418339287201,33.4327292518043,184,,,,
72,-111.684543187154,33.4320251305447,8887.0,16748.0,Power RD & Ensenada St,Mesa,No,No,Standard,11296.0,Southbound,-111.684543187154,33.4320251305447,184,,,,
74,-111.788385764512,33.4221460236508,4610.0,16264.0,GILBERT RD & UNIVERSITY DR,Mesa,No,Yes,Standard,4624.0,Southbound,-111.788385764512,33.4221460236508,136,,,,
75,-111.788477086019,33.396985368599,5093.0,16271.0,GILBERT RD & EMERALD AVE,Mesa,No,No,Standard,5107.0,Southbound,-111.788477086019,33.396985368599,136,,,,
76,-111.78853946584299,33.4074493622242,5091.0,16268.0,GILBERT RD & BROADWAY RD,Mesa,No,Yes,Standard,5105.0,Southbound,-111.78853946584299,33.4074493622242,136,,,,
80,-111.68454624822901,33.3943466946745,3481.0,12584.0,POWER RD & SOUTHERN AVE,Mesa,No,Yes,Standard,3495.0,Northbound,-111.68454624822901,33.3943466946745,40 | 45 | 184,,,,
81,-111.804937447745,33.4445289868643,3106.0,16102.0,STAPLEY DR & MCLELLAN RD,Mesa,No,No,Standard,3120.0,Northbound,-111.804937447745,33.4445289868643,128,,,,
82,-111.68433698280899,33.4165026497028,3031.0,12129.0,POWER RD & MAIN ST,Mesa,No,Yes,Standard,3045.0,Northbound,-111.68433698280899,33.4165026497028,30 | 184,,,,
83,-111.686953402342,33.336584037405,8878.0,16735.0,Power Rd & Warner Rd,Mesa,No,No,Standard,11292.0,Northbound,-111.686953402342,33.336584037405,184,,,,
84,-111.78815964052,33.3902031836348,3363.0,16197.0,GILBERT RD & HAMPTON AVE,Mesa,No,No,Standard,3377.0,Northbound,-111.78815964052,33.3902031836348,136,,,,
85,-111.788016763339,33.4196298010275,2898.0,16205.0,MAIN ST & UNIVERSITY DR,Mesa,No,No,Standard,2912.0,Northbound,-111.788016763339,33.4196298010275,136,,,,
87,-111.787853857865,33.4510782029525,4608.0,16239.0,GILBERT RD & MCKELLIPS RD,Mesa,No,No,Standard,4622.0,Southbound,-111.787853857865,33.4510782029525,136,,,,
88,-111.684502274219,33.3994052165531,3474.0,12585.0,POWER RD & VIA ROSSMOOR BLVD,Mesa,No,Yes,Standard,3488.0,Northbound,-111.684502274219,33.3994052165531,40 | 45 | 184,,,,
90,-111.684761505562,33.408116200592104,5216.0,12577.0,POWER RD & BROADWAY RD,Mesa,No,Yes,Standard,5230.0,Southbound,-111.684761505562,33.408116200592104,40 | 45 | 184,,,,
91,-111.80514909373801,33.4339463447256,3098.0,16099.0,STAPLEY DR & FAIRFIELD ST,Mesa,No,No,Standard,3112.0,Northbound,-111.80514909373801,33.4339463447256,128,,,,
93,-111.78808082301902,33.433604482744606,4602.0,16260.0,GILBERT RD & FAIRFIELD ST,Mesa,No,No,Standard,4616.0,Southbound,-111.78808082301902,33.433604482744606,136,,,,
95,-111.787910769799,33.4234034739444,2895.0,16206.0,GILBERT RD & UNIVERSITY DR,Mesa,No,Yes,Standard,2909.0,Northbound,-111.787910769799,33.4234034739444,136,,,,
96,-111.68431882742901,33.447784775292895,4722.0,16746.0,POWER RD & INGLEWOOD ST,Mesa,No,Yes,Standard,4736.0,Southbound,-111.68431882742901,33.447784775292895,184,,,,
98,-111.68424138801399,33.4235421539109,3032.0,16738.0,POWER RD & UNIVERSITY DR,Mesa,No,Yes,Standard,3046.0,Northbound,-111.68424138801399,33.4235421539109,184,,,,
99,-111.684944639899,33.3935519559004,5220.0,12579.0,POWER RD & SOUTHERN AVE,Mesa,No,No,Standard,5234.0,Southbound,-111.684944639899,33.3935519559004,40 | 45 | 61 | 184,,,,
101,-111.80514718847701,33.4299813204818,3100.0,16098.0,STAPLEY DR & 8TH ST,Mesa,No,No,Standard,3114.0,Northbound,-111.80514718847701,33.4299813204818,128,,,,
102,-111.78741560450199,33.456250818489195,9145.0,18233.0,N GILBERT RD & E LOCKWOOD ST,Mesa,No,No,Standard,11645.0,Northbound,-111.78741560450199,33.456250818489195,136,,,,
103,-111.78788263767099,33.4304123897902,2885.0,16208.0,GILBERT RD & ADOBE ST,Mesa,No,No,Standard,2899.0,Northbound,-111.78788263767099,33.4304123897902,136,,,,
104,-111.788533789377,33.3928630228436,5097.0,16272.0,GILBERT RD & SOUTHERN AVE,Mesa,No,Yes,Standard,5111.0,Southbound,-111.788533789377,33.3928630228436,136,,,,
105,-111.683338966532,33.4709359974428,9090.0,18250.0,POWER RD PARK AND RIDE,Mesa,Yes,Yes,Standard,11460.0,Other,-111.683338966532,33.4709359974428,184 | 535,,,,
109,-111.788090741445,33.3942479785644,3368.0,16198.0,GILBERT RD & SOUTHERN AVE,Mesa,No,Yes,Standard,3382.0,Northbound,-111.788090741445,33.3942479785644,136,,,,
111,-111.685008457925,33.390853600366604,5222.0,12580.0,POWER RD & HAMPTON AVE,Mesa,No,No,Standard,5236.0,Southbound,-111.685008457925,33.390853600366604,40 | 45 | 61 | 184,,,,
113,-111.788252797148,33.4264384387506,4600.0,16262.0,GILBERT RD & DECATUR ST,Mesa,No,No,Standard,4614.0,Southbound,-111.788252797148,33.4264384387506,136,,,,
114,-111.68466540919901,33.4185909706987,4719.0,16751.0,POWER RD & ALBANY ST,Mesa,No,Yes,Standard,4733.0,Southbound,-111.68466540919901,33.4185909706987,184,,,,
115,-111.827461970062,33.4295319021242,9587.0,16497.0,8TH ST- FITCH PARK,Mesa,No,Yes,Standard,,Eastbound,-111.827461970062,33.4295319021242,120 | BUZZ,,,,
116,-111.798532895951,33.4513500164297,9588.0,16867.0,BARKLEY & MCKELLIPS,Mesa,No,No,Standard,,Southbound,-111.798532895951,33.4513500164297,128,,,,
117,-111.684356990038,33.4443673290144,9590.0,16920.0,POWER RD & MCLELLAN RD,Mesa,No,No,Standard,,Southbound,-111.684356990038,33.4443673290144,184,,,,
118,-111.68400917717501,33.4441396253463,9591.0,16912.0,POWER RD & MCLELLAN RD,Mesa,No,No,Standard,,Northbound,-111.68400917717501,33.4441396253463,184,,,,
120,-111.805142951473,33.4372927954465,3101.0,16100.0,STAPLEY DR & BROWN RD,Mesa,No,No,Standard,3115.0,Northbound,-111.805142951473,33.4372927954465,128,,,,
121,-111.78792912618799,33.439892054782,4603.0,16241.0,GILBERT RD & GRANDVIEW ST,Mesa,No,No,Standard,4617.0,Southbound,-111.78792912618799,33.439892054782,136,,,,
123,-111.684489115066,33.43674964071,4721.0,16747.0,POWER RD & BROWN RD,Mesa,No,Yes,Standard,4735.0,Southbound,-111.684489115066,33.43674964071,184,,,,
124,-111.78788559937401,33.4440932291909,4609.0,16240.0,GILBERT RD & MCLELLAN RD,Mesa,No,No,Standard,4623.0,Southbound,-111.78788559937401,33.4440932291909,136,,,,
125,-111.684834616751,33.3986279493442,5218.0,12578.0,POWER RD & VIA ROSSMOOR BLVD,Mesa,No,Yes,Standard,5232.0,Southbound,-111.684834616751,33.3986279493442,40 | 45 | 184,,,,
126,-111.787644479999,33.4442843016488,9143.0,18232.0,N GILBERT RD & E HALE ST,Mesa,No,No,Standard,11643.0,Northbound,-111.787644479999,33.4442843016488,136,,,,
127,-111.788463396407,33.4114489009891,5088.0,16890.0,GILBERT RD & 2ND AVE,Mesa,No,Yes,Standard,5102.0,Southbound,-111.788463396407,33.4114489009891,136,,,,
128,-111.80516694489201,33.4262055331939,3108.0,16097.0,STAPLEY DR & DOVER ST,Mesa,No,No,Standard,3122.0,Northbound,-111.80516694489201,33.4262055331939,128,,,,
129,-111.683924255272,33.451995083914596,9504.0,16743.0,MCKELLIPS & POWER RD,Mesa,No,No,Standard,11435.0,Northbound,-111.683924255272,33.451995083914596,184,,,,
133,-111.789420045879,33.4589647190624,4605.0,18160.0,GILBERT RD & HERMOSA VISTA DR ,Mesa,No,No,Standard,11453.0,Southbound,-111.789420045879,33.4589647190624,136,,,,
134,-111.80518552938,33.419069013287604,3099.0,16095.0,STAPLEY DR & 2ND ST,Mesa,No,Yes,Standard,3113.0,Northbound,-111.80518552938,33.419069013287604,128,,,,
135,-111.78817286986201,33.3840596010143,3371.0,16196.0,GILBERT RD & INVERNESS AVE,Mesa,No,No,Standard,3385.0,Northbound,-111.78817286986201,33.3840596010143,136,,,,
136,-111.684155245942,33.4659058316972,8634.0,16987.0,POWER RD & MCDOWELL RD,Mesa,No,No,Standard,10926.0,Southbound,-111.684155245942,33.4659058316972,184,,,,
137,-111.788502452358,33.4148395808063,5095.0,16266.0,GILBERT RD & MAIN ST,Mesa,No,Yes,Standard,5109.0,Southbound,-111.788502452358,33.4148395808063,136,,,,
138,-111.68437173958901,33.4510881180378,4723.0,16745.0,POWER RD & MCKELLIPS RD,Mesa,No,Yes,Standard,4737.0,Southbound,-111.68437173958901,33.4510881180378,184,,,,
140,-111.684229865352,33.458698424116804,9140.0,18301.0,N POWER RD & E HERMOSA VISTA DR,Mesa,No,No,Standard,11658.0,Southbound,-111.684229865352,33.458698424116804,184,,,,
142,-111.80482014338101,33.4484544331615,3104.0,16103.0,STAPLEY DR & JENSEN ST,Mesa,No,Yes,Standard,3118.0,Northbound,-111.80482014338101,33.4484544331615,128,,,,
144,-111.80384632071501,33.451337951518695,533.0,16104.0,MCKELLIPS RD & STAPLEY DR,Mesa,No,Yes,Standard,549.0,Eastbound,-111.80384632071501,33.451337951518695,128,,,,
145,-111.80529969577299,33.3964931890655,3557.0,16089.0,STAPLEY DR & EMERALD AVE,Mesa,No,No,Standard,3571.0,Northbound,-111.80529969577299,33.3964931890655,128,,,,
146,-111.78744201516399,33.4522291714083,9144.0,18162.0,N GILBERT RD & E MCKELLIPS RD,Mesa,No,No,Standard,11644.0,Northbound,-111.78744201516399,33.4522291714083,136,,,,
147,-111.78632747286801,33.46750544193,9089.0,18251.0,GILBERT MCDOWELL PARK AND RIDE,Mesa,Yes,Yes,Park and Ride,11457.0,Other,-111.78632747286801,33.46750544193,136 | 535,,,,
148,-111.805260547403,33.4008439216858,3555.0,16090.0,STAPLEY DR & 8TH AVE,Mesa,No,No,Standard,3569.0,Northbound,-111.805260547403,33.4008439216858,128,,,,
149,-111.67733115575399,33.3096721718088,9433.0,18254.0,INNOVATION WAY N & S TWINING,Mesa,No,Yes,Standard,12041.0,Westbound,-111.67733115575399,33.3096721718088,184,,,,
150,-111.66933406328,33.3080758056252,9503.0,18253.0,PHX-MESA GATEWAY AIRPORT,Mesa,No,Yes,Standard,11723.0,Other,-111.66933406328,33.3080758056252,184,,,,
151,-111.78807415788602,33.4368168157559,4599.0,16234.0,GILBERT RD & BROWN RD,Mesa,No,Yes,Standard,4613.0,Southbound,-111.78807415788602,33.4368168157559,136,,,,
152,-111.684707850241,33.415196496991804,5217.0,12575.0,POWER RD & MAIN ST,Mesa,No,No,Standard,5231.0,Southbound,-111.684707850241,33.415196496991804,40 | 184,,,,
153,-111.684176849295,33.462161482093805,9139.0,18300.0,N POWER RD & E MELROSE ST,Mesa,No,No,Standard,11657.0,Southbound,-111.684176849295,33.462161482093805,184,,,,
156,-111.670917720655,33.3104076542497,8981.0,16759.0,SOSSAMAN & TAHOE AV,Mesa,No,Yes,Standard,11408.0,Southbound,-111.670917720655,33.3104076542497,184,,,,
157,-111.68424368983,33.4271740536566,3028.0,16739.0,POWER RD & DECATUR ST,Mesa,No,Yes,Standard,3042.0,Northbound,-111.68424368983,33.4271740536566,184,,,,
158,-111.80506673412201,33.4400425445464,3102.0,16101.0,STAPLEY DR & GRANDVIEW ST,Mesa,No,No,Standard,3116.0,Northbound,-111.80506673412201,33.4400425445464,128,,,,
161,-111.78849875130301,33.400484417368105,5090.0,16270.0,GILBERT RD & 8TH AVE,Mesa,No,Yes,Standard,5104.0,Southbound,-111.78849875130301,33.400484417368105,136,,,,
162,-111.788509906086,33.3895954003221,5094.0,16273.0,GILBERT RD & HAMPTON AVE,Mesa,No,No,Standard,5108.0,Southbound,-111.788509906086,33.3895954003221,136,,,,
163,-111.80505746253,33.4228180017271,3107.0,16096.0,STAPLEY DR & UNIVERSITY DR,Mesa,No,No,Standard,3121.0,Northbound,-111.80505746253,33.4228180017271,128,,,,
164,-111.788139418459,33.379593773756,3359.0,16195.0,GILBERT RD & BASELINE RD,Mesa,No,Yes,Standard,3373.0,Northbound,-111.788139418459,33.379593773756,136,,,,
165,-111.788146391051,33.401188231066996,3365.0,16199.0,GILBERT RD & PUEBLO AVE,Mesa,No,Yes,Standard,3379.0,Northbound,-111.788146391051,33.401188231066996,136,,,,
166,-111.683907120938,33.4494119127513,3030.0,16742.0,POWER RD & JENSEN ST,Mesa,No,No,Standard,3044.0,Northbound,-111.683907120938,33.4494119127513,184,,,,
169,-111.675131282981,33.312651082430804,8894.0,16758.0,Sossaman & Avery,Mesa,No,No,Standard,11303.0,Southbound,-111.675131282981,33.312651082430804,184,,,,
170,-111.787783507393,33.4557129469234,4607.0,18161.0,GILBERT RD & E LOCKWOOD ST ,Mesa,No,No,Standard,11454.0,Southbound,-111.787783507393,33.4557129469234,136,,,,
172,-111.684500350427,33.3911238448355,3479.0,12583.0,POWER RD & HAMPTON AVE,Mesa,No,Yes,Standard,3493.0,Northbound,-111.684500350427,33.3911238448355,40 | 45 | 61 | 184,,,,
174,-111.78849895471501,33.404204657933505,5089.0,16269.0,GILBERT RD & 6TH AVE,Mesa,No,No,Standard,5103.0,Southbound,-111.78849895471501,33.404204657933505,136,,,,
175,-111.788380139735,33.4190244828542,4614.0,16265.0,UNIVERSITY DR & MAIN ST,Mesa,No,No,Standard,4628.0,Southbound,-111.788380139735,33.4190244828542,136,,,,
176,-111.80519683014299,33.4082482110976,3556.0,16092.0,STAPLEY DR & BROADWAY RD,Mesa,No,Yes,Standard,3570.0,Northbound,-111.80519683014299,33.4082482110976,128,,,,
177,-111.80519238571699,33.4105274079722,3559.0,16093.0,STAPLEY DR & JARVIS AVE,Mesa,No,No,Standard,3573.0,Northbound,-111.80519238571699,33.4105274079722,128,,,,
178,-111.78776142791,33.4376931274931,9141.0,18271.0,N GILBERT RD & E BROWN RD,Mesa,No,No,Standard,11641.0,Northbound,-111.78776142791,33.4376931274931,136,,,,
179,-111.78805428835399,33.4158815333508,2893.0,16204.0,GILBERT RD & MAIN ST,Mesa,No,Yes,Standard,2907.0,Northbound,-111.78805428835399,33.4158815333508,136,,,,
180,-111.78773613372101,33.4395456266966,9142.0,18231.0,N GILBERT RD & E GARY ST,Mesa,No,No,Standard,11642.0,Northbound,-111.78773613372101,33.4395456266966,136,,,,
182,-111.78851568956999,33.3836161650427,5106.0,16274.0,GILBERT RD & INTREPID AVE,Mesa,No,Yes,Standard,5120.0,Southbound,-111.78851568956999,33.3836161650427,136,,,,
184,-111.788107700875,33.4113479782192,3360.0,16202.0,GILBERT RD & BAYBERRY AVE,Mesa,No,No,Standard,3374.0,Northbound,-111.788107700875,33.4113479782192,136,,,,
185,-111.68428721812599,33.4185462975917,3026.0,12130.0,POWER RD & ALBANY ST,Mesa,No,Yes,Standard,3040.0,Northbound,-111.68428721812599,33.4185462975917,30 | 184,,,,
187,-111.80524399512,33.404452790558096,3554.0,16091.0,STAPLEY DR & 6TH AVE,Mesa,No,No,Standard,3568.0,Northbound,-111.80524399512,33.404452790558096,128,,,,
192,-111.683825295805,33.4626209809148,9138.0,16911.0,N POWER RD & E MELROSE ST,Mesa,No,No,Standard,11656.0,Northbound,-111.683825295805,33.4626209809148,184,,,,
241,-111.683847948151,33.4592052550813,9595.0,16909.0,POWER RD & HERMOSA VISTA,Mesa,No,No,Standard,,Northbound,-111.683847948151,33.4592052550813,184,,,,
332,-111.92653806941001,33.4579725466934,4752.0,14806.0,SCOTTSDALE RD & CONTINENTAL DR,Tempe,No,Yes,Standard,4766.0,Southbound,-111.92653806941001,33.4579725466934,72 | EART | MRT,,,,
333,-111.92558988346501,33.451063032795,532.0,14862.0,MCKELLIPS RD & SCOTTSDALE RD,Tempe,No,Yes,Standard,548.0,Eastbound,-111.92558988346501,33.451063032795,MRT | EART,,,,
342,-111.870345341715,33.415729580607,8758.0,12078.0,SYCAMORE/MAIN ST TRANSIT CENTER,Mesa,Yes,Yes,Transit Center,11043.0,Other,-111.870345341715,33.415729580607,30 | 45,,,,
343,-111.840107736531,33.4145175009168,5067.0,15964.0,COUNTRY CLUB DR & MAIN ST,Mesa,No,Yes,Standard,5081.0,Southbound,-111.840107736531,33.4145175009168,112,,,,
344,-111.840226320798,33.406028786662304,5064.0,15967.0,COUNTRY CLUB DR & BROADWAY FRONTAGE RD,Mesa,No,Yes,LINK,5078.0,Southbound,-111.840226320798,33.406028786662304,112,,,,
345,-111.840237218211,33.4001398648762,5063.0,15968.0,COUNTRY CLUB DR & 8TH AVE,Mesa,No,Yes,Standard,5077.0,Southbound,-111.840237218211,33.4001398648762,112,,,,
346,-111.84024107340299,33.396601652841895,5065.0,15969.0,COUNTRY CLUB DR & EMERALD AVE,Mesa,No,Yes,Standard,5079.0,Southbound,-111.84024107340299,33.396601652841895,112,,,,
347,-111.84029144908101,33.3926316133196,5068.0,15970.0,COUNTRY CLUB DR & SOUTHERN AVE,Mesa,No,Yes,LINK,5082.0,Southbound,-111.84029144908101,33.3926316133196,112,,,,
348,-111.840265214563,33.3886657972989,5061.0,15971.0,COUNTRY CLUB DR & HAMPTON AVE,Mesa,No,Yes,Standard,5075.0,Southbound,-111.840265214563,33.3886657972989,112,,,,
349,-111.84032195961399,33.3818254842947,9505.0,18259.0,S COUNTRY CLUB & W JUANITA,Mesa,No,Yes,LINK,11789.0,Southbound,-111.84032195961399,33.3818254842947,112,,,,
350,-111.84238242119801,33.3817335083704,9088.0,18252.0,WEST MESA PARK AND RIDE,Mesa,Yes,Yes,Park and Ride,11471.0,Other,-111.84238242119801,33.3817335083704,531 | 541,,,,
351,-111.841742558438,33.37818375005,9375.0,18257.0,COUNTRY CLUB DR & BASELINE RD,Mesa,No,Yes,Standard,11894.0,Southbound,-111.841742558438,33.37818375005,112,,,,
352,-111.842193611567,33.3680451478942,8066.0,15972.0,COUNTRY CLUB DR & MESETO AVE,Mesa,No,Yes,LINK,9852.0,Southbound,-111.842193611567,33.3680451478942,112,,,,
353,-111.842037024275,33.3637425219217,8067.0,15973.0,COUNTRY CLUB DR & GUADALUPE RD,Mesa,No,Yes,Standard,9853.0,Southbound,-111.842037024275,33.3637425219217,112,,,,
394,-111.839924658295,33.3826679066393,7821.0,15934.0,COUNTRY CLUB DR & JUANITA AVE,Mesa,No,Yes,LINK,9428.0,Northbound,-111.839924658295,33.3826679066393,112,,,,
395,-111.839917280702,33.390950701406496,3334.0,15935.0,COUNTRY CLUB DR & HAMPTON AVE,Mesa,No,Yes,Standard,3348.0,Northbound,-111.839917280702,33.390950701406496,112,,,,
396,-111.839830630028,33.394041373056396,3335.0,16301.0,COUNTRY CLUB DR & SOUTHERN AVE,Mesa,No,Yes,LINK,3349.0,Northbound,-111.839830630028,33.394041373056396,112,,,,
397,-111.839908152148,33.3972843749159,3331.0,15937.0,COUNTRY CLUB DR & 10TH AVE,Mesa,No,Yes,Standard,3345.0,Northbound,-111.839908152148,33.3972843749159,112,,,,
398,-111.839919407842,33.401323168634704,3333.0,15938.0,COUNTRY CLUB DR & 8TH AVE,Mesa,No,Yes,Standard,3347.0,Northbound,-111.839919407842,33.401323168634704,112,,,,
399,-111.839870363088,33.405299193290006,3336.0,15939.0,COUNTRY CLUB DR & 6TH DR,Mesa,No,Yes,LINK,3350.0,Northbound,-111.839870363088,33.405299193290006,112,,,,
400,-111.839744384965,33.413406801701996,3332.0,15940.0,COUNTRY CLUB DR & 1ST AVE,Mesa,No,Yes,Standard,3346.0,Northbound,-111.839744384965,33.413406801701996,112,,,,
401,-111.839757561951,33.415628918188,2863.0,16480.0,COUNTRY CLUB DR & MAIN ST,Mesa,No,Yes,LINK,2877.0,Northbound,-111.839757561951,33.415628918188,112,,,,
402,-111.83981191905701,33.417942104671695,2857.0,15942.0,COUNTRY CLUB DR & 1ST ST,Mesa,No,Yes,Standard,2871.0,Northbound,-111.83981191905701,33.417942104671695,112,,,,
403,-111.83976933840599,33.4228938446818,2865.0,15943.0,COUNTRY CLUB DR & UNIVERSITY DR,Mesa,No,Yes,Standard,2879.0,Northbound,-111.83976933840599,33.4228938446818,112,,,,
404,-111.839798035485,33.4263602698986,2858.0,15944.0,COUNTRY CLUB DR & 6TH ST,Mesa,No,Yes,Standard,2872.0,Northbound,-111.839798035485,33.4263602698986,112,,,,
405,-111.83976154218901,33.430003758347,2859.0,15945.0,COUNTRY CLUB DR & 8TH ST,Mesa,No,Yes,Standard,2873.0,Northbound,-111.83976154218901,33.430003758347,112,,,,
406,-111.839754582057,33.43269107169,2860.0,15946.0,COUNTRY CLUB DR & 9TH PL,Mesa,No,Yes,Standard,2874.0,Northbound,-111.839754582057,33.43269107169,112,,,,
407,-111.839728226398,33.4354500978543,2861.0,15947.0,COUNTRY CLUB DR & BROWN RD,Mesa,No,Yes,Standard,2875.0,Northbound,-111.839728226398,33.4354500978543,112,,,,
408,-111.83970182824899,33.439671877341496,2856.0,15948.0,COUNTRY CLUB DR & 13TH PL,Mesa,No,Yes,Standard,2870.0,Northbound,-111.83970182824899,33.439671877341496,112,,,,
409,-111.83964840916201,33.444399330805396,2864.0,15949.0,COUNTRY CLUB DR & MCLELLAN RD,Mesa,No,Yes,Standard,2878.0,Northbound,-111.83964840916201,33.444399330805396,112,,,,
410,-111.83962422786999,33.448542139917,2862.0,15950.0,COUNTRY CLUB DR & JUNIPER ST,Mesa,No,Yes,Standard,2876.0,Northbound,-111.83962422786999,33.448542139917,112,,,,
411,-111.839269329284,33.4512982564548,1517.0,15951.0,MCKELLIPS RD & COUNTRY CLUB DR,Mesa,No,Yes,Standard,1533.0,Eastbound,-111.839269329284,33.4512982564548,112,,,,
412,-111.831283748105,33.450919857406895,4501.0,15952.0,CENTER ST & MCKELLIPS RD,Mesa,No,Yes,Standard,4515.0,Southbound,-111.831283748105,33.450919857406895,112,,,,
413,-111.83127949450301,33.4469619379775,4500.0,15954.0,CENTER ST & INGLEWOOD ST,Mesa,No,Yes,Standard,4514.0,Southbound,-111.83127949450301,33.4469619379775,112,,,,
414,-111.835156175436,33.444253761438496,6835.0,15955.0,MCLELLAN RD & GRAND,Mesa,No,Yes,Standard,6849.0,Westbound,-111.835156175436,33.444253761438496,112,,,,
415,-111.839986092819,33.4438621452756,4568.0,15956.0,COUNTRY CLUB DR & MCLELLAN RD,Mesa,No,Yes,Standard,4582.0,Southbound,-111.839986092819,33.4438621452756,112,,,,
416,-111.84002992895901,33.4397214965583,4567.0,15957.0,COUNTRY CLUB DR & FAIRWAY DR,Mesa,No,Yes,Standard,4581.0,Southbound,-111.84002992895901,33.4397214965583,112,,,,
417,-111.84009978908999,33.434739679763396,4566.0,15958.0,COUNTRY CLUB DR & BROWN RD,Mesa,No,Yes,Standard,4580.0,Southbound,-111.84009978908999,33.434739679763396,112,,,,
418,-111.84009661120001,33.4322254115756,4570.0,15959.0,COUNTRY CLUB DR & 9TH ST,Mesa,No,Yes,Standard,4584.0,Southbound,-111.84009661120001,33.4322254115756,112,,,,
419,-111.840132190749,33.4294564582042,4565.0,15960.0,COUNTRY CLUB DR & 8TH ST,Mesa,No,Yes,Standard,4579.0,Southbound,-111.840132190749,33.4294564582042,112,,,,
420,-111.84015626281901,33.426633218355896,4564.0,15961.0,COUNTRY CLUB DR & 6TH PL,Mesa,No,Yes,Standard,4578.0,Southbound,-111.84015626281901,33.426633218355896,112,,,,
421,-111.84017793454201,33.4218253507632,4569.0,15962.0,COUNTRY CLUB DR & UNIVERSITY DR,Mesa,No,Yes,Standard,4583.0,Southbound,-111.84017793454201,33.4218253507632,112,,,,
422,-111.840158156155,33.4170268532643,4563.0,15963.0,COUNTRY CLUB DR & 1ST ST,Mesa,No,Yes,Standard,4577.0,Southbound,-111.840158156155,33.4170268532643,112,,,,
423,-111.82291368918001,33.4289474298428,4684.0,16015.0,MESA DR & 8TH ST,Mesa,No,Yes,Standard,4698.0,Southbound,-111.82291368918001,33.4289474298428,120,,,,
424,-111.862763856756,33.436379465341304,8936.0,10553.0,MESA RIVERVIEW,Mesa,No,Yes,Standard,11365.0,Other,-111.862763856756,33.436379465341304,104,,,,
425,-111.85636000011002,33.436221661798896,9275.0,18403.0,N ALMA SCHOOL & BASS PRO DR,Mesa,No,Yes,Standard,11924.0,Southbound,-111.85636000011002,33.436221661798896,104,,,,
426,-111.856383977516,33.4334241885582,9442.0,18404.0,N ALMA SCHOOL RD & W MOUNTAIN VIEW DR,Mesa,No,Yes,Standard,12031.0,Southbound,-111.856383977516,33.4334241885582,104,,,,
427,-111.85646980861999,33.429033556472696,4427.0,15492.0,ALMA SCHOOL RD & 8TH ST,Mesa,No,Yes,Standard,4441.0,Southbound,-111.85646980861999,33.429033556472696,104,,,,
428,-111.85648369500299,33.4266418594938,4426.0,15493.0,ALMA SCHOOL RD & 7TH ST,Mesa,No,Yes,Standard,4440.0,Southbound,-111.85648369500299,33.4266418594938,104,,,,
429,-111.85662215734101,33.4216069134197,4435.0,15494.0,ALMA SCHOOL RD & UNIVERSITY DR,Mesa,No,Yes,Standard,4449.0,Southbound,-111.85662215734101,33.4216069134197,104,,,,
430,-111.856655019378,33.4187719971718,4438.0,15495.0,ALMA SCHOOL RD & 2ND ST,Mesa,No,Yes,Standard,4452.0,Southbound,-111.856655019378,33.4187719971718,104,,,,
431,-111.856819769401,33.4142787693302,5010.0,15496.0,ALMA SCHOOL RD & MAIN ST,Mesa,No,Yes,Standard,5024.0,Southbound,-111.856819769401,33.4142787693302,104,,,,
432,-111.85691656052201,33.4069087735628,5004.0,15497.0,ALMA SCHOOL RD & BROADWAY RD,Mesa,No,Yes,Standard,5018.0,Southbound,-111.85691656052201,33.4069087735628,104,,,,
433,-111.85704497423599,33.4033565333037,5001.0,15498.0,ALMA SCHOOL RD & 6TH AVE,Mesa,No,Yes,Standard,5015.0,Southbound,-111.85704497423599,33.4033565333037,104,,,,
434,-111.857182180818,33.3999319734679,5002.0,15499.0,ALMA SCHOOL RD & 8TH AVE,Mesa,No,Yes,Standard,5016.0,Southbound,-111.857182180818,33.3999319734679,104,,,,
435,-111.857321073984,33.3964977136005,5006.0,15500.0,ALMA SCHOOL RD & EMERALD AVE,Mesa,No,Yes,Standard,5020.0,Southbound,-111.857321073984,33.3964977136005,104,,,,
436,-111.857394174671,33.3933384463042,5016.0,15501.0,ALMA SCHOOL RD & SOUTHERN AVE,Mesa,No,Yes,Standard,5030.0,Southbound,-111.857394174671,33.3933384463042,104,,,,
437,-111.86008799156299,33.390744132844,974.0,16294.0,STEWART & GROVE AVE,Mesa,No,Yes,Standard,990.0,Eastbound,-111.86008799156299,33.390744132844,104,,,,
438,-111.858154288671,33.383002820253,5008.0,15503.0,ALMA SCHOOL RD & ISABELLA AVE,Mesa,No,Yes,Standard,5022.0,Southbound,-111.858154288671,33.383002820253,104,,,,
439,-111.85996611780199,33.3780961108814,5003.0,15504.0,ALMA SCHOOL RD & BASELINE RD,Mesa,No,Yes,Standard,5017.0,Southbound,-111.85996611780199,33.3780961108814,104 | 541,,,,
440,-111.85970421486,33.374357133250605,5009.0,15505.0,ALMA SCHOOL RD & KILAREA AVE,Mesa,No,Yes,Standard,5023.0,Southbound,-111.85970421486,33.374357133250605,104 | 541,,,,
441,-111.85953991435301,33.3710511247188,5011.0,15506.0,ALMA SCHOOL RD & MEDINA AVE,Mesa,No,Yes,Standard,5025.0,Southbound,-111.85953991435301,33.3710511247188,104 | 541,,,,
442,-111.859386881012,33.367875988722304,5013.0,15507.0,ALMA SCHOOL RD & MESETO AVE,Mesa,No,Yes,Standard,5027.0,Southbound,-111.859386881012,33.367875988722304,104,,,,
443,-111.859270187617,33.3630021048414,5007.0,15508.0,ALMA SCHOOL RD & GUADALUPE RD,Mesa,No,Yes,Standard,5021.0,Southbound,-111.859270187617,33.3630021048414,104 | 541,,,,
444,-111.859231369859,33.3599998065855,5014.0,15509.0,ALMA SCHOOL RD & PECOS AVE,Mesa,No,Yes,Standard,5028.0,Southbound,-111.859231369859,33.3599998065855,104,,,,
482,-111.858941600286,33.360614998740694,3289.0,15472.0,ALMA SCHOOL RD & PECOS AVE,Mesa,No,Yes,Standard,3303.0,Northbound,-111.858941600286,33.360614998740694,104,,,,
483,-111.858887318512,33.3649118003377,3282.0,15473.0,ALMA SCHOOL RD & GUADALUPE RD,Mesa,No,Yes,Standard,3296.0,Northbound,-111.858887318512,33.3649118003377,104 | 541,,,,
484,-111.859140822591,33.3685448679907,3288.0,15474.0,ALMA SCHOOL RD & MESETO AVE,Mesa,No,Yes,Standard,3302.0,Northbound,-111.859140822591,33.3685448679907,104,,,,
485,-111.859296237145,33.3717855172041,3287.0,15475.0,ALMA SCHOOL RD & MEDINA AVE,Mesa,No,Yes,Standard,3301.0,Northbound,-111.859296237145,33.3717855172041,104 | 541,,,,
486,-111.85945735473699,33.3749639039085,3286.0,15476.0,ALMA SCHOOL RD & KILAREA AVE,Mesa,No,Yes,Standard,3300.0,Northbound,-111.85945735473699,33.3749639039085,104 | 541,,,,
487,-111.85960208293699,33.3791082069523,3279.0,15477.0,ALMA SCHOOL RD & BASELINE RD,Mesa,No,Yes,Standard,3293.0,Northbound,-111.85960208293699,33.3791082069523,104,,,,
488,-111.857779771227,33.3829737973873,3284.0,15478.0,ALMA SCHOOL RD & ISABELLA AVE,Mesa,No,Yes,Standard,3298.0,Northbound,-111.857779771227,33.3829737973873,104,,,,
489,-111.857046708726,33.388720823601,3283.0,15479.0,ALMA SCHOOL RD & HOLMES AVE,Mesa,No,Yes,Standard,3297.0,Northbound,-111.857046708726,33.388720823601,104,,,,
490,-111.856998761574,33.3936801121771,2728.0,15481.0,ALMA SCHOOL RD & SOUTHERN AVE,Mesa,No,Yes,Standard,2742.0,Northbound,-111.856998761574,33.3936801121771,104,,,,
491,-111.856954949508,33.397043971178604,2720.0,15482.0,ALMA SCHOOL RD & EMERALD AVE,Mesa,No,Yes,Standard,2734.0,Northbound,-111.856954949508,33.397043971178604,104,,,,
492,-111.856804855047,33.4006681662876,2716.0,15483.0,ALMA SCHOOL RD & 8TH AVE,Mesa,No,Yes,Standard,2730.0,Northbound,-111.856804855047,33.4006681662876,104,,,,
493,-111.85672546970899,33.4032321717351,2713.0,15484.0,ALMA SCHOOL RD & 6TH AVE,Mesa,No,Yes,Standard,2727.0,Northbound,-111.85672546970899,33.4032321717351,104,,,,
494,-111.85649723162399,33.408049883306695,2717.0,15485.0,ALMA SCHOOL RD & BROADWAY RD,Mesa,No,Yes,Standard,2731.0,Northbound,-111.85649723162399,33.408049883306695,104,,,,
495,-111.856411550145,33.415386221149305,2724.0,15487.0,ALMA SCHOOL RD & MAIN ST,Mesa,No,Yes,Standard,2738.0,Northbound,-111.856411550145,33.415386221149305,104,,,,
496,-111.85633468814899,33.4188216042597,2714.0,15488.0,ALMA SCHOOL RD & 2ND ST,Mesa,No,Yes,Standard,2728.0,Northbound,-111.85633468814899,33.4188216042597,104,,,,
497,-111.85624795292,33.4225331739596,2730.0,15489.0,ALMA SCHOOL RD & UNIVERSITY DR,Mesa,No,Yes,Standard,2744.0,Northbound,-111.85624795292,33.4225331739596,104,,,,
498,-111.856156943107,33.4271001832756,2715.0,15490.0,ALMA SCHOOL RD & 7TH ST,Mesa,No,Yes,Standard,2729.0,Northbound,-111.856156943107,33.4271001832756,104,,,,
499,-111.856081480515,33.4331855638738,9443.0,18418.0,N ALMA SCHOOL RD & W 10TH ST,Mesa,No,Yes,Standard,12073.0,Northbound,-111.856081480515,33.4331855638738,104,,,,
530,-111.687442873636,33.3657298951658,3478.0,15850.0,POWER RD & GUADALUPE RD,Mesa,No,Yes,Standard,3492.0,Northbound,-111.687442873636,33.3657298951658,108 | 184,,,,
531,-111.68754931732501,33.3686469086888,8979.0,17487.0,POWER RD & MONTEREY AV,Mesa,No,Yes,Standard,11508.0,Northbound,-111.68754931732501,33.3686469086888,108 | 184,,,,
532,-111.68760866134501,33.3721792025092,8876.0,16737.0,Power Rd & Madero Ave,Mesa,No,Yes,Standard,11290.0,Northbound,-111.68760866134501,33.3721792025092,108 | 184,,,,
533,-111.687250083214,33.3791601322898,9212.0,18260.0,E BASELINE RD & S POWER RD,Mesa,No,Yes,Standard,11710.0,Eastbound,-111.687250083214,33.3791601322898,108,,,,
534,-111.683819957108,33.3792380189974,9213.0,18261.0,E BASELINE RD & S ROSLYN,Mesa,No,Yes,Standard,11717.0,Eastbound,-111.683819957108,33.3792380189974,108,,,,
535,-111.671628062791,33.3791750758472,9215.0,18263.0,E BASELINE RD & S AVOCA,Mesa,No,Yes,Standard,11719.0,Eastbound,-111.671628062791,33.3791750758472,108,,,,
536,-111.66719940120001,33.3791461525172,78.0,15851.0,BASELINE RD & SOSSAMAN RD,Mesa,No,Yes,Standard,94.0,Eastbound,-111.66719940120001,33.3791461525172,108,,,,
537,-111.662524981681,33.3791636843405,9216.0,,E BASELINE RD & S FARNSWORTH DR,Mesa,No,Yes,Standard,11724.0,Eastbound,-111.662524981681,33.3791636843405,108,,,,
538,-111.660913561192,33.3788402031441,5086.0,15852.0,FARNSWORTH DR & BASELINE RD,Mesa,No,Yes,Standard,5100.0,Southbound,-111.660913561192,33.3788402031441,108,,,,
539,-111.66126663701,33.3760958343778,3352.0,15853.0,FARNSWORTH DR & KIOWA ST,Mesa,No,Yes,Standard,3366.0,Northbound,-111.66126663701,33.3760958343778,108,,,,
540,-111.66309117498999,33.379357946798,5370.0,15854.0,BASELINE RD & 78TH ST,Mesa,No,Yes,Standard,5384.0,Westbound,-111.66309117498999,33.379357946798,108,,,,
541,-111.667691225767,33.3793623003302,5376.0,15855.0,BASELINE RD & SOSSAMAN RD,Mesa,No,Yes,Standard,5390.0,Westbound,-111.667691225767,33.3793623003302,108,,,,
542,-111.687694407814,33.380049882033504,3475.0,15856.0,POWER RD & BASELINE RD,Mesa,No,Yes,Standard,3489.0,Northbound,-111.687694407814,33.380049882033504,108 | 184,,,,
543,-111.689096783026,33.3876415766442,8833.0,12581.0,SUPERSTITION SPRINGS TRANSIT CENTER,Mesa,Yes,Yes,Transit Center,11087.0,Other,-111.689096783026,33.3876415766442,40 | 45 | 61 | 108 | 184,,,,
544,-111.68505854778499,33.3896394155726,8999.0,17105.0,POWER RD & HAMPTON AVE,Mesa,No,Yes,Standard,11434.0,Southbound,-111.68505854778499,33.3896394155726,108 | 184,,,,
545,-111.685560123697,33.3834874663147,5221.0,15858.0,POWER RD & SUPERSTITION SPRINGS BLVD,Mesa,No,Yes,Standard,5235.0,Southbound,-111.685560123697,33.3834874663147,108 | 184,,,,
617,-111.92739062485201,33.4583270173752,9627.0,11979.0,Continental Dr & Bull Run St,Tempe,No,Yes,Standard,,Eastbound,-111.92739062485201,33.4583270173752,68CM,,,,
634,-111.927203749979,33.458516671862505,9643.0,18375.0,Continental Dr - Scottsdale Rd,Tempe,No,Yes,Standard,,Westbound,-111.927203749979,33.458516671862505,EART | 68CM,,,,
637,-111.922360432735,33.4511126986135,9651.0,13174.0,McKellips Rd & 74th St,Tempe,No,Yes,Standard,,Eastbound,-111.922360432735,33.4511126986135,SNTR | EART,,,,
639,-111.842367228824,33.3724914634232,9548.0,18597.0,Country Club Dr & Desert Ln,Mesa,No,Yes,Standard,,Southbound,-111.842367228824,33.3724914634232,112,,,,
642,-111.85609569564899,33.4298633772576,9652.0,17097.0,Alma School Rd & 8th St,Mesa,No,Yes,Standard,,Northbound,-111.85609569564899,33.4298633772576,104,,,,
643,-111.680290925657,33.379207220928194,9214.0,18262.0,Baseline Rd & Superstition Springs Blvd,Mesa,No,Yes,Standard,11718.0,Eastbound,-111.680290925657,33.379207220928194,108,,,,
644,-111.681197511414,33.3794866965802,9653.0,18284.0,Baseline Rd & Superstition Springs Blvd,Mesa,No,Yes,Standard,,Westbound,-111.681197511414,33.3794866965802,108,,,,
659,-111.685895886042,33.307013562165,9431.0,18321.0,WILLIAMS FIELD RD & D ST SAGEWOOD,Mesa,No,Yes,Standard,12079.0,Westbound,-111.685895886042,33.307013562165,156,,,,
660,-111.680247679342,33.3088860294434,9464.0,18323.0,WILLIAMS CAMPUS LOOP N & WILLIAMS CAMPUS LOOP E,Mesa,No,Yes,Standard,10127.0,Eastbound,-111.680247679342,33.3088860294434,156,,,,
661,-111.68314367162901,33.3072763024361,8980.0,18322.0,WILLIAMS FIELD RD & EDGEWATER,Mesa,No,Yes,Standard,11407.0,Westbound,-111.68314367162901,33.3072763024361,156 | 184,,,,
745,-111.89741716862801,33.3451156473348,5255.0,15807.0,RIVER PKWY & TECHNOLOGY CIR,Tempe,Yes,Yes,Standard,5269.0,Southbound,-111.89741716862801,33.3451156473348,108,,,,
755,-111.904626312416,33.4308760742719,9564.0,14167.0,TEMPE MARKETPLACE,Tempe,No,Yes,Standard,10453.0,Northbound,-111.904626312416,33.4308760742719,62 | 81 | EART,,,,
756,-111.771704435234,33.4228190374045,6068.0,12148.0,UNIVERSITY DR & LINDSAY RD,Mesa,No,Yes,Standard,6082.0,Westbound,-111.771704435234,33.4228190374045,30,,,,
757,-111.777149963016,33.4225456655586,827.0,12103.0,UNIVERSITY DR & 25TH ST,Mesa,No,Yes,Standard,843.0,Eastbound,-111.777149963016,33.4225456655586,30,,,,
918,-111.874335580595,33.4313604321844,8934.0,15403.0,DOBSON RD & RIVERVIEW DR,Mesa,No,Yes,Standard,11433.0,Southbound,-111.874335580595,33.4313604321844,96,,,,
919,-111.87443990094201,33.429097735500996,9147.0,18234.0,N DOBSON RD & W 8TH ST,Mesa,No,Yes,Standard,11636.0,Southbound,-111.87443990094201,33.429097735500996,96,,,,
920,-111.874492821681,33.4256655168659,9441.0,18294.0,N DOBSON RD & W DECATUR ST,Mesa,No,Yes,Standard,12071.0,Southbound,-111.874492821681,33.4256655168659,96,,,,
921,-111.874561980487,33.4215787706624,4582.0,12076.0,DOBSON RD & UNIVERSITY DR,Mesa,No,Yes,Standard,4596.0,Southbound,-111.874561980487,33.4215787706624,30 | 96,,,,
922,-111.874560801194,33.418283219127495,4574.0,12077.0,DOBSON RD & 2ND ST,Mesa,No,Yes,Standard,4588.0,Southbound,-111.874560801194,33.418283219127495,30 | 96,,,,
923,-111.874662470079,33.4126693695218,5070.0,13117.0,DOBSON RD & 1ST AVE,Mesa,No,Yes,Standard,5084.0,Southbound,-111.874662470079,33.4126693695218,45 | 96,,,,
924,-111.87475264052601,33.406960227367705,5073.0,15404.0,DOBSON RD & BROADWAY RD,Mesa,No,Yes,Standard,5087.0,Southbound,-111.87475264052601,33.406960227367705,96,,,,
925,-111.874743913259,33.403160430079105,5081.0,15405.0,BROADWAY RD & 8TH AVE,Mesa,No,Yes,Standard,5095.0,Southbound,-111.874743913259,33.403160430079105,96,,,,
926,-111.874756552792,33.3999697529971,5071.0,15406.0,DOBSON RD & 8TH AVE,Mesa,No,Yes,Standard,5085.0,Southbound,-111.874756552792,33.3999697529971,96,,,,
927,-111.874769059921,33.396497222365,5074.0,15407.0,DOBSON RD & EMERALD AVE,Mesa,No,Yes,Standard,5088.0,Southbound,-111.874769059921,33.396497222365,96,,,,
928,-111.8748236258,33.3925642916961,5080.0,15408.0,DOBSON RD & SOUTHERN AVE,Mesa,No,Yes,Standard,5094.0,Southbound,-111.8748236258,33.3925642916961,96,,,,
929,-111.87485561623501,33.3887136446271,5083.0,15409.0,SOUTHERN AVE & US 60,Mesa,No,Yes,Standard,5097.0,Southbound,-111.87485561623501,33.3887136446271,96,,,,
930,-111.875658966727,33.3825666024147,5075.0,15410.0,DOBSON RD & ISABELLA AVE,Mesa,No,Yes,Standard,5089.0,Southbound,-111.875658966727,33.3825666024147,96,,,,
931,-111.87808732298099,33.377786719677,9092.0,15412.0,S DOBSON RD & W BASELINE RD,Mesa,No,Yes,Standard,11462.0,Southbound,-111.87808732298099,33.377786719677,96,,,,
932,-111.87961735683099,33.375184101399604,8928.0,15413.0,DOBSON & LINDNER,Mesa,No,Yes,Standard,11358.0,Southbound,-111.87961735683099,33.375184101399604,96,,,,
933,-111.88040792046499,33.371591760753304,8927.0,15414.0,DOBSON & LOS LAGOS VISTA,Mesa,No,Yes,Standard,11357.0,Southbound,-111.88040792046499,33.371591760753304,96,,,,
934,-111.87756218514099,33.3670247107207,8930.0,15415.0,DOBSON & KEATING,Mesa,No,Yes,Standard,11360.0,Southbound,-111.87756218514099,33.3670247107207,96,,,,
935,-111.87678515171301,33.3631876671723,8931.0,15416.0,DOBSON & GUADALUPE,Mesa,No,Yes,Standard,11361.0,Southbound,-111.87678515171301,33.3631876671723,96,,,,
936,-111.876694607632,33.3601852240762,8932.0,15417.0,DOBSON & PORTOBELLO,Mesa,No,Yes,Standard,11362.0,Southbound,-111.876694607632,33.3601852240762,96,,,,
992,-111.895368758504,33.3495240894637,5626.0,15899.0,ELLIOT RD & PRICE RD,Tempe,No,Yes,Standard,5640.0,Westbound,-111.895368758504,33.3495240894637,108,,,,
993,-111.898266934468,33.349394613543204,5628.0,15900.0,ELLIOT RD & RIVER PKWY,Tempe,No,Yes,Standard,5642.0,Westbound,-111.898266934468,33.349394613543204,108,,,,
994,-111.903251043326,33.3493461418104,5621.0,15901.0,ELLIOT RD & COUNTRY CLUB WY,Tempe,No,Yes,Standard,5635.0,Westbound,-111.903251043326,33.3493461418104,108 | 522,,,,
995,-111.90719654410101,33.349320110320804,5624.0,15902.0,ELLIOT RD & LOS FELIZ DR,Tempe,No,Yes,Standard,5638.0,Westbound,-111.90719654410101,33.349320110320804,108 | 522,,,,
996,-111.911932095562,33.3492459886418,5625.0,15903.0,ELLIOT RD & MCCLINTOCK DR,Tempe,No,Yes,Standard,5639.0,Westbound,-111.911932095562,33.3492459886418,108 | 522,,,,
997,-111.915241636698,33.349257757867306,5630.0,15904.0,ELLIOT RD & WILLOW DR,Tempe,No,Yes,Standard,5644.0,Westbound,-111.915241636698,33.349257757867306,108 | 522,,,,
998,-111.92006014316601,33.3492960498444,5623.0,15905.0,ELLIOT RD & LAKESHORE DR,Tempe,No,Yes,Standard,5637.0,Westbound,-111.92006014316601,33.3492960498444,108 | 522,,,,
999,-111.92374945862,33.3492954163178,5627.0,15906.0,ELLIOT RD & RITA LN,Tempe,No,Yes,Standard,5641.0,Westbound,-111.92374945862,33.3492954163178,108 | 522,,,,
1000,-111.92888697727301,33.349323596034495,5629.0,15907.0,ELLIOT RD & RURAL RD,Tempe,No,Yes,Standard,5643.0,Westbound,-111.92888697727301,33.349323596034495,108,,,,
1001,-111.93357223728901,33.3493146498144,5632.0,15908.0,ELLIOT RD & COLLEGE AVE,Tempe,No,Yes,Standard,5646.0,Westbound,-111.93357223728901,33.3493146498144,108,,,,
1002,-111.937404836505,33.3493105513329,6571.0,15909.0,MILL AVE & DATELAND DR,Tempe,No,Yes,Standard,6585.0,Westbound,-111.937404836505,33.3493105513329,108,,,,
1003,-111.939419645963,33.3493358343242,6548.0,15910.0,ELLIOT RD & DATELAND DR,Tempe,No,Yes,Standard,6562.0,Westbound,-111.939419645963,33.3493358343242,108,,,,
1004,-111.94645767783301,33.3493713969088,6567.0,15911.0,ELLIOT RD & KYRENE RD,Tempe,No,Yes,Standard,6581.0,Westbound,-111.94645767783301,33.3493713969088,108,,,,
1005,-111.950850939451,33.3493055535985,6569.0,15912.0,ELLIOT RD & ROOSEVELT ST,Tempe,No,Yes,Standard,6583.0,Westbound,-111.950850939451,33.3493055535985,108,,,,
1006,-111.95501797377399,33.3492971454326,6565.0,15913.0,ELLIOT RD & HARDY DR,Tempe,No,Yes,Standard,6579.0,Westbound,-111.95501797377399,33.3492971454326,108,,,,
1007,-111.958891529776,33.3492864135279,6570.0,15914.0,HARDY DR & PRIEST DR,Tempe,No,Yes,Standard,6584.0,Westbound,-111.958891529776,33.3492864135279,108,,,,
1008,-111.963922458659,33.3492593628728,6568.0,13656.0,ELLIOT RD & PRIEST DR,Tempe,No,Yes,Standard,6582.0,Westbound,-111.963922458659,33.3492593628728,108 | 522,,,,
1009,-111.96646928183,33.349240101545,6566.0,13657.0,ELLIOT RD & HARL AVE,Tempe,No,Yes,Standard,6580.0,Westbound,-111.96646928183,33.349240101545,108,,,,
1010,-111.965279494029,33.3489401463307,9453.0,18443.0,W ELLIOT RD & AUTOPLEX S HARL AV,Tempe,No,Yes,Standard,12077.0,Eastbound,-111.965279494029,33.3489401463307,108,,,,
1011,-111.96253428868201,33.3489415963874,1280.0,15790.0,ELLIOT RD & PRIEST DR,Tempe,No,Yes,Standard,1296.0,Eastbound,-111.96253428868201,33.3489415963874,108 | 522,,,,
1012,-111.957863466597,33.348994352023894,1281.0,15791.0,PRIEST DR & HARDY DR,Tempe,No,Yes,Standard,1297.0,Eastbound,-111.957863466597,33.348994352023894,108,,,,
1013,-111.953708782981,33.3489636814175,1275.0,15792.0,ELLIOT RD & HARDY DR,Tempe,No,Yes,Standard,1291.0,Eastbound,-111.953708782981,33.3489636814175,108,,,,
1014,-111.94947544232001,33.349035694612006,1263.0,15793.0,ELLIOT RD & ROOSEVELT ST,Tempe,No,Yes,Standard,1279.0,Eastbound,-111.94947544232001,33.349035694612006,108,,,,
1015,-111.944965172581,33.349012084635895,333.0,15794.0,ELLIOT RD & KYRENE RD,Tempe,No,Yes,Standard,349.0,Eastbound,-111.944965172581,33.349012084635895,108,,,,
1016,-111.93923068485901,33.3490632158782,330.0,15795.0,ELLIOT RD & DATELAND DR,Tempe,No,Yes,Standard,346.0,Eastbound,-111.93923068485901,33.3490632158782,108,,,,
1017,-111.93677596114401,33.3490397628858,339.0,15796.0,ELLIOT RD & MILL AVE,Tempe,No,Yes,Standard,355.0,Eastbound,-111.93677596114401,33.3490397628858,108,,,,
1018,-111.933511684939,33.3490611251121,329.0,15797.0,ELLIOT RD & COLLEGE AVE,Tempe,No,Yes,Standard,345.0,Eastbound,-111.933511684939,33.3490611251121,108,,,,
1019,-111.927668640079,33.3490333337788,340.0,15798.0,ELLIOT RD & RURAL RD,Tempe,No,Yes,Standard,356.0,Eastbound,-111.927668640079,33.3490333337788,108 | 522,,,,
1020,-111.923789663544,33.3490355384088,322.0,15799.0,ELLIOT RD & RITA LN,Tempe,No,Yes,Standard,338.0,Eastbound,-111.923789663544,33.3490355384088,108 | 522,,,,
1021,-111.919567479482,33.3490219423032,334.0,15800.0,ELLIOT RD & LAKESHORE DR,Tempe,No,Yes,Standard,350.0,Eastbound,-111.919567479482,33.3490219423032,108 | 522,,,,
1022,-111.91538907374701,33.348998953295805,342.0,15801.0,ELLIOT RD & WILLOW DR,Tempe,No,Yes,Standard,358.0,Eastbound,-111.91538907374701,33.348998953295805,108 | 522,,,,
1023,-111.913403413846,33.3489418789108,343.0,15802.0,WILLOW DR & MCCLINTOCK DR,Tempe,No,Yes,Standard,359.0,Eastbound,-111.913403413846,33.3489418789108,108 | 522,,,,
1024,-111.91069692314801,33.348965599847,338.0,15803.0,ELLIOT RD & MCCLINTOCK DR,Tempe,No,Yes,Standard,354.0,Eastbound,-111.91069692314801,33.348965599847,108 | 522,,,,
1025,-111.90646413300301,33.3490310728971,337.0,15804.0,ELLIOT RD & LOS FELIZ DR,Tempe,No,Yes,Standard,353.0,Eastbound,-111.90646413300301,33.3490310728971,108 | 522,,,,
1026,-111.903073603711,33.3490691332313,323.0,15805.0,ELLIOT RD & COUNTRY CLUB WY,Tempe,No,Yes,Standard,339.0,Eastbound,-111.903073603711,33.3490691332313,108 | 522,,,,
1029,-111.876387546715,33.3579555181456,8933.0,15381.0,DOBSON & PAMPA,Mesa,No,Yes,Standard,11363.0,Northbound,-111.876387546715,33.3579555181456,96,,,,
1030,-111.876419435328,33.3606960269627,9097.0,16130.0,S DOBSON RD & W PORTOBELLO AV,Mesa,No,Yes,Standard,11507.0,Northbound,-111.876419435328,33.3606960269627,96,,,,
1031,-111.876391796432,33.3646201009406,3341.0,15382.0,DOBSON RD & GUADALUPE RD,Mesa,No,Yes,Standard,3355.0,Northbound,-111.876391796432,33.3646201009406,96,,,,
1032,-111.87767546479401,33.3677824690874,5077.0,15383.0,DOBSON RD & KEATING AVE,Mesa,No,Yes,Standard,5091.0,Northbound,-111.87767546479401,33.3677824690874,96,,,,
1033,-111.87976426152001,33.3707798055231,8992.0,15384.0,DOBSON AT MESA LIBRARY,Mesa,No,Yes,Standard,12070.0,Northbound,-111.87976426152001,33.3707798055231,96,,,,
1034,-111.87811817668002,33.376645637488295,3343.0,17452.0,DOBSON RD & LINDNER AVE,Mesa,No,Yes,Standard,3357.0,Northbound,-111.87811817668002,33.376645637488295,96,,,,
1035,-111.877430146354,33.3789424140689,3338.0,15386.0,DOBSON RD & BASELINE RD,Mesa,No,Yes,Standard,3352.0,Northbound,-111.877430146354,33.3789424140689,96,,,,
1036,-111.874913195283,33.3831192301078,3342.0,15387.0,DOBSON RD & ISABELLA AVE,Mesa,No,Yes,Standard,3356.0,Northbound,-111.874913195283,33.3831192301078,96,,,,
1037,-111.87444429079399,33.3897857727531,3346.0,15388.0,US 60 & SOUTHERN AVE,Mesa,No,Yes,Standard,3360.0,Northbound,-111.87444429079399,33.3897857727531,96,,,,
1038,-111.874405033311,33.3935831363277,3345.0,15389.0,DOBSON RD & SOUTHERN AVE,Mesa,No,Yes,Standard,3359.0,Northbound,-111.874405033311,33.3935831363277,96,,,,
1039,-111.874432383949,33.4029647294117,3348.0,15392.0,8TH AVE & BROADWAY RD,Mesa,No,Yes,Standard,3362.0,Northbound,-111.874432383949,33.4029647294117,96,,,,
1040,-111.874296432645,33.408124054755895,3339.0,13116.0,DOBSON RD & BROADWAY RD,Mesa,No,Yes,Standard,3353.0,Northbound,-111.874296432645,33.408124054755895,45 | 96,,,,
1041,-111.874234689756,33.4158273408316,2875.0,12079.0,DOBSON RD & MAIN ST,Mesa,No,Yes,Standard,2889.0,Northbound,-111.874234689756,33.4158273408316,30 | 96,,,,
1042,-111.87420281695101,33.4185527731374,8100.0,12080.0,DOBSON RD & 2ND ST,Mesa,No,Yes,Standard,9875.0,Northbound,-111.87420281695101,33.4185527731374,30 | 96,,,,
1043,-111.874185606807,33.422510673455804,2876.0,15394.0,DOBSON RD & UNIVERSITY DR,Mesa,No,Yes,Standard,2890.0,Northbound,-111.874185606807,33.422510673455804,96,,,,
1044,-111.874158349119,33.4260377772241,2871.0,15395.0,DOBSON RD & DECATUR ST,Mesa,No,Yes,Standard,2885.0,Northbound,-111.874158349119,33.4260377772241,96,,,,
1045,-111.874004454693,33.4309548186054,8996.0,15397.0,N DOBSON RD & 8TH STREET,Mesa,No,Yes,Standard,11431.0,Northbound,-111.874004454693,33.4309548186054,96,,,,
1046,-111.86920829241001,33.4311256182586,8994.0,12901.0,MESA RIVERVIEW NEAR HOME DEPOT,Mesa,No,Yes,Standard,11415.0,Southbound,-111.86920829241001,33.4311256182586,96,,,,
1047,-111.867124251668,33.4335736104176,8997.0,15401.0,MESA RIVERVIEW NEAR WALMART,Mesa,No,Yes,Standard,11432.0,Southbound,-111.867124251668,33.4335736104176,96,,,,
1048,-111.86816539725001,33.4343748568758,8935.0,15402.0,BASS PRO DR & DOBSON RD,Mesa,No,Yes,Standard,11364.0,Westbound,-111.86816539725001,33.4343748568758,96,,,,
1049,-111.908884822367,33.422668720976,3431.0,14166.0,MCCLINTOCK DR & UNIVERSITY DR,Tempe,No,Yes,Standard,3445.0,Northbound,-111.908884822367,33.422668720976,62 | 81,,,,
1050,-111.908952144054,33.42495041476,9421.0,18419.0,S MCCLINTOCK DR AT 525 S MCCLINTOCK,Tempe,No,Yes,Standard,12067.0,Northbound,-111.908952144054,33.42495041476,62 | 81,,,,
1068,-111.90951086936,33.4493426056044,4674.0,15191.0,MCCLINTOCK DR & LARKSPUR LN,Tempe,No,Yes,Standard,4688.0,Southbound,-111.90951086936,33.4493426056044,81,,,,
1069,-111.909504472642,33.446016571154104,4655.0,15192.0,LARKSPUR LN & WEBER DR,Tempe,No,Yes,Standard,4669.0,Southbound,-111.909504472642,33.446016571154104,81,,,,
1070,-111.90965140776501,33.4435594750642,4676.0,15193.0,MCCLINTOCK DR & WEBER DR,Tempe,No,Yes,Standard,4690.0,Southbound,-111.90965140776501,33.4435594750642,81,,,,
1071,-111.909650641843,33.4401134698155,4675.0,15194.0,MCCLINTOCK DR & CURRY RD,Tempe,No,Yes,Standard,4689.0,Southbound,-111.909650641843,33.4401134698155,81,,,,
1072,-111.908468659825,33.4291624119803,9423.0,18293.0,RIO SALADO PKWY & S MCCLINTOCK DR,Tempe,No,Yes,Standard,12068.0,Eastbound,-111.908468659825,33.4291624119803,48 | 62 | 81 | EARTH,,,,
1073,-111.909194784621,33.428620675647004,5169.0,14168.0,MCCLINTOCK DR & RIO SALADO PKWY,Tempe,No,Yes,Standard,5183.0,Southbound,-111.909194784621,33.428620675647004,62 | 81,,,,
1074,-111.909227047403,33.424498667154104,9422.0,18400.0,S MCCLINTOCK DR AT 526 S MCCLINTOCK,Tempe,No,Yes,Standard,12069.0,Southbound,-111.909227047403,33.424498667154104,62 | 81,,,,
1075,-111.909304658146,33.4214893170463,5172.0,15195.0,MCCLINTOCK DR & UNIVERSITY DR,Tempe,No,Yes,Standard,5186.0,Southbound,-111.909304658146,33.4214893170463,81,,,,
1076,-111.90923576329399,33.4197495142136,5177.0,17364.0,MCCLINTOCK DR & 8TH ST,Tempe,No,Yes,Standard,5191.0,Southbound,-111.90923576329399,33.4197495142136,81,,,,
1077,-111.909217196247,33.417056609114496,5163.0,15197.0,MCCLINTOCK DR & DON CARLOS AVE,Tempe,No,Yes,Standard,5177.0,Southbound,-111.909217196247,33.417056609114496,81,,,,
1078,-111.90926724721399,33.4143398216351,5156.0,15198.0,MCCLINTOCK DR & APACHE BLVD,Tempe,No,Yes,Standard,5170.0,Southbound,-111.90926724721399,33.4143398216351,81,,,,
1079,-111.90926602498001,33.4070845948488,5159.0,15199.0,MCCLINTOCK DR & BROADWAY RD,Tempe,No,Yes,Standard,5173.0,Southbound,-111.90926602498001,33.4070845948488,81 | 520,,,,
1080,-111.909251938075,33.4038898647755,5168.0,15200.0,MCCLINTOCK DR & PALMCROFT DR,Tempe,No,Yes,Standard,5182.0,Southbound,-111.909251938075,33.4038898647755,81 | 520,,,,
1081,-111.90926052318501,33.3999172020131,5155.0,15201.0,MCCLINTOCK DR & ALAMEDA DR,Tempe,No,Yes,Standard,5169.0,Southbound,-111.90926052318501,33.3999172020131,81 | 520 | MARS,,,,
1082,-111.909260520291,33.3980630992481,5160.0,15202.0,MCCLINTOCK DR & CAMPUS DR,Tempe,No,Yes,Standard,5174.0,Southbound,-111.909260520291,33.3980630992481,61 | 81 | 520 | MARS,,,,
1083,-111.9092768665,33.3949566662787,5174.0,15203.0,MCCLINTOCK DR & SOUTHERN AVE,Tempe,No,Yes,Standard,5188.0,Southbound,-111.9092768665,33.3949566662787,61 | 81 | 520,,,,
1084,-111.909308734707,33.39253912760461,5170.0,15204.0,MCCLINTOCK DR & SOUTHERN AVE,Tempe,No,Yes,Standard,5184.0,Southbound,-111.909308734707,33.39253912760461,81,,,,
1085,-111.90931936875401,33.3905251400688,5166.0,15205.0,MCCLINTOCK DR & LAGUNA DR,Tempe,No,Yes,Standard,5180.0,Southbound,-111.90931936875401,33.3905251400688,81,,,,
1086,-111.90934364371701,33.3873970041055,5176.0,15206.0,MCCLINTOCK DR & HERMOSA DR,Tempe,No,Yes,Standard,5190.0,Southbound,-111.90934364371701,33.3873970041055,81,,,,
1087,-111.909373078617,33.383583055763395,5161.0,15207.0,MCCLINTOCK DR & CARSON DR,Tempe,No,Yes,Standard,5175.0,Southbound,-111.909373078617,33.383583055763395,81,,,,
1088,-111.909387834896,33.382152933853305,5175.0,15208.0,MCCLINTOCK DR & MINTON DR,Tempe,No,Yes,Standard,5189.0,Southbound,-111.909387834896,33.382152933853305,81,,,,
1089,-111.909423322899,33.3798108312063,5164.0,15209.0,MCCLINTOCK DR & DUNBAR DR,Tempe,No,Yes,Standard,5178.0,Southbound,-111.909423322899,33.3798108312063,81,,,,
1090,-111.909422384492,33.3780881803077,5157.0,15210.0,MCCLINTOCK DR & BASELINE RD,Tempe,No,Yes,Standard,5171.0,Southbound,-111.909422384492,33.3780881803077,81 | 521,,,,
1091,-111.910263545842,33.3758421662121,5154.0,15211.0,MCCLINTOCK DR & OXFORD DR,Tempe,No,Yes,Standard,5168.0,Southbound,-111.910263545842,33.3758421662121,81 | 521,,,,
1092,-111.911425943345,33.371996271652606,5171.0,15212.0,MCCLINTOCK DR & SOUTHSHORE DR,Tempe,No,Yes,Standard,5185.0,Southbound,-111.911425943345,33.371996271652606,81,,,,
1093,-111.91140059781901,33.3691951663497,5173.0,15213.0,MCCLINTOCK DR & WATSON DR,Tempe,No,Yes,Standard,5187.0,Southbound,-111.91140059781901,33.3691951663497,81,,,,
1094,-111.911368954468,33.3653653957694,5167.0,15214.0,MCCLINTOCK DR & LIBRA DR,Tempe,No,Yes,Standard,5181.0,Southbound,-111.911368954468,33.3653653957694,81,,,,
1095,-111.911417233568,33.363325288070506,5165.0,16986.0,MCCLINTOCK DR & GUADALUPE RD,Tempe,No,Yes,Standard,5179.0,Southbound,-111.911417233568,33.363325288070506,81,,,,
1096,-111.91135907144199,33.359468143882104,5158.0,15216.0,MCCLINTOCK DR & BELL DE MAR DR,Tempe,No,Yes,Standard,5172.0,Southbound,-111.91135907144199,33.359468143882104,81,,,,
1097,-111.911340686826,33.3540748964964,5162.0,15217.0,MCCLINTOCK DR & DAVA DR,Tempe,No,Yes,Standard,5176.0,Southbound,-111.911340686826,33.3540748964964,81,,,,
1098,-111.911403004889,33.348295673464605,8988.0,15231.0,MCCLINTOCK & ELLIOTT,Tempe,No,Yes,Standard,11428.0,Southbound,-111.911403004889,33.348295673464605,81,,,,
1099,-111.91130952495199,33.3442507961996,8989.0,15232.0,MCCLINTOCK & SECRETARIAT,Tempe,No,Yes,Standard,11429.0,Southbound,-111.91130952495199,33.3442507961996,81,,,,
1100,-111.911286963876,33.339318066221104,8990.0,15233.0,MCCLINTOCK & CALLE DE CABALLOS,Tempe,No,Yes,Standard,11430.0,Southbound,-111.911286963876,33.339318066221104,81,,,,
1101,-111.911279056896,33.333737278513,8633.0,15218.0,MCCLINTOCK DR & WARNER RD,Tempe,No,Yes,Standard,10844.0,Southbound,-111.911279056896,33.333737278513,81,,,,
1102,-111.911269562821,33.3312126579494,8632.0,15219.0,MCCLINTOCK DR & LA VIEVE LN,Tempe,No,Yes,Standard,10845.0,Southbound,-111.911269562821,33.3312126579494,81,,,,
1103,-111.91126027662901,33.328583160974695,8631.0,15220.0,MCCLINTOCK DR & JEANINE DR,Tempe,No,Yes,Standard,10846.0,Southbound,-111.91126027662901,33.328583160974695,81,,,,
1117,-111.91104888887199,33.3286078181328,8628.0,15069.0,MCCLINTOCK DR & JEANINE DR,Tempe,No,Yes,Standard,10849.0,Northbound,-111.91104888887199,33.3286078181328,81,,,,
1118,-111.91103981498999,33.3319401538242,8627.0,15070.0,MCCLINTOCK DR & LA VIEVE LN,Tempe,No,Yes,Standard,10847.0,Northbound,-111.91103981498999,33.3319401538242,81,,,,
1119,-111.910628465183,33.3345153939828,946.0,15227.0,WARNER RD & MCCLINTOCK DR,Tempe,No,Yes,Standard,962.0,Eastbound,-111.910628465183,33.3345153939828,81,,,,
1120,-111.90591872379999,33.334586042804105,945.0,15228.0,WARNER RD & LOS FELIZ DR,Tempe,No,Yes,Standard,961.0,Eastbound,-111.90591872379999,33.334586042804105,81,,,,
1121,-111.90322781757799,33.3346234573241,951.0,15229.0,WARNER RD & KENWOOD LN,Tempe,No,Yes,Standard,967.0,Eastbound,-111.90322781757799,33.3346234573241,81,,,,
1122,-111.90019262737101,33.334621604017,940.0,15230.0,WARNER RD & FAIRFIELD DR,Tempe,No,Yes,Standard,956.0,Eastbound,-111.90019262737101,33.334621604017,81,,,,
1123,-111.899131209501,33.3398490477074,9345.0,15140.0,CENTENNIAL & RIVER,Tempe,No,Yes,Standard,11922.0,Westbound,-111.899131209501,33.3398490477074,81,,,,
1124,-111.90110203852,33.3348348479113,6167.0,15143.0,WARNER RD & FAIRFIELD DR,Tempe,No,Yes,Standard,6181.0,Westbound,-111.90110203852,33.3348348479113,81,,,,
1125,-111.903785501056,33.3348059503212,7735.0,15144.0,WARNER RD & KENWOOD LN,Tempe,No,Yes,Standard,7749.0,Westbound,-111.903785501056,33.3348059503212,81,,,,
1126,-111.906922071273,33.3347793476458,6173.0,15145.0,WARNER RD & LOS FELIZ DR,Tempe,No,Yes,Standard,6187.0,Westbound,-111.906922071273,33.3347793476458,81,,,,
1127,-111.911020563391,33.3351169426112,8985.0,18100.0,MCCLINTOCK & WARNER,Tempe,No,Yes,Standard,11419.0,Northbound,-111.911020563391,33.3351169426112,81,,,,
1128,-111.911026682336,33.3397996577182,8986.0,18101.0,MCCLINTOCK & CALLE DE CABALLOS,Tempe,No,Yes,Standard,11426.0,Northbound,-111.911026682336,33.3397996577182,81,,,,
1129,-111.911028410849,33.3448682544553,8987.0,18156.0,MCCLINTOCK & SECRETARIAT,Tempe,No,Yes,Standard,11427.0,Northbound,-111.911028410849,33.3448682544553,81,,,,
1130,-111.91103009027,33.3495172955096,3422.0,15072.0,MCCLINTOCK DR & ELLIOT RD,Tempe,No,Yes,Standard,3436.0,Northbound,-111.91103009027,33.3495172955096,81,,,,
1131,-111.911016322615,33.353958981016895,3416.0,15073.0,MCCLINTOCK DR & ANOZIRA PKWY N,Tempe,No,Yes,Standard,3430.0,Northbound,-111.911016322615,33.353958981016895,81,,,,
1132,-111.911056828032,33.3601063707828,3419.0,15074.0,MCCLINTOCK DR & BELL DE MAR DR,Tempe,No,Yes,Standard,3433.0,Northbound,-111.911056828032,33.3601063707828,81,,,,
1133,-111.91101932983,33.3641943718233,3424.0,15075.0,MCCLINTOCK DR & GUADALUPE RD,Tempe,No,Yes,Standard,3438.0,Northbound,-111.91101932983,33.3641943718233,81,,,,
1134,-111.911120025581,33.3698588270501,3432.0,15077.0,MCCLINTOCK DR & WATSON DR,Tempe,No,Yes,Standard,3446.0,Northbound,-111.911120025581,33.3698588270501,81,,,,
1135,-111.911173001392,33.371840787321,3436.0,15078.0,MCCLINTOCK DR & CORNELL DR,Tempe,No,Yes,Standard,3450.0,Northbound,-111.911173001392,33.371840787321,81,,,,
1136,-111.91001213786801,33.3757045227807,3428.0,15079.0,MCCLINTOCK DR & OXFORD DR,Tempe,No,Yes,Standard,3442.0,Northbound,-111.91001213786801,33.3757045227807,81 | 521,,,,
1137,-111.909087300044,33.3789254055568,3418.0,15080.0,MCCLINTOCK DR & BASELINE RD,Tempe,No,Yes,Standard,3432.0,Northbound,-111.909087300044,33.3789254055568,81,,,,
1138,-111.90907124326401,33.3809357986802,3423.0,15081.0,MCCLINTOCK DR & ELLIS DR,Tempe,No,Yes,Standard,3437.0,Northbound,-111.90907124326401,33.3809357986802,81,,,,
1139,-111.90900016327801,33.3840834020179,3434.0,15082.0,MCCLINTOCK DR & US 60,Tempe,No,Yes,Standard,3448.0,Northbound,-111.90900016327801,33.3840834020179,81,,,,
1140,-111.908992353939,33.387148878903496,3433.0,15083.0,MCCLINTOCK DR & US 60,Tempe,No,Yes,Standard,3447.0,Northbound,-111.908992353939,33.387148878903496,81,,,,
1141,-111.909010192558,33.3905708994199,3426.0,15084.0,MCCLINTOCK DR & LA JOLLA DR,Tempe,No,Yes,Standard,3440.0,Northbound,-111.909010192558,33.3905708994199,81,,,,
1142,-111.90891122729099,33.3932383760392,3430.0,15085.0,MCCLINTOCK DR & SOUTHERN AVE,Tempe,No,Yes,Standard,3444.0,Northbound,-111.90891122729099,33.3932383760392,81 | 520 | JUPI,,,,
1143,-111.908934506966,33.3981011937185,3435.0,15086.0,MCCLINTOCK DR & CAMPUS DR,Tempe,No,Yes,Standard,3449.0,Northbound,-111.908934506966,33.3981011937185,81 | 520 | MARS,,,,
1144,-111.908970028771,33.400453680522105,3415.0,15087.0,MCCLINTOCK DR & ALAMEDA DR,Tempe,No,Yes,Standard,3429.0,Northbound,-111.908970028771,33.400453680522105,81 | 520,,,,
1145,-111.908983417383,33.405033891996396,3429.0,15088.0,MCCLINTOCK DR & PALMCROFT DR,Tempe,No,Yes,Standard,3443.0,Northbound,-111.908983417383,33.405033891996396,81 | 520,,,,
1146,-111.908899376839,33.4080777876166,3420.0,15089.0,MCCLINTOCK DR & BROADWAY RD,Tempe,No,Yes,Standard,3434.0,Northbound,-111.908899376839,33.4080777876166,81,,,,
1147,-111.90895414044701,33.4142776478979,3417.0,15090.0,MCCLINTOCK DR & APACHE BLVD,Tempe,No,Yes,Standard,3431.0,Northbound,-111.90895414044701,33.4142776478979,81,,,,
1148,-111.908979252595,33.4178229234845,3421.0,15091.0,MCCLINTOCK DR & DON CARLOS AVE,Tempe,No,Yes,Standard,3435.0,Northbound,-111.908979252595,33.4178229234845,81,,,,
1149,-111.90896285702601,33.4193697782232,3425.0,15092.0,MCCLINTOCK DR & HAYDEN LN,Tempe,No,Yes,Standard,3439.0,Northbound,-111.90896285702601,33.4193697782232,81,,,,
1150,-111.909736591222,33.422125791251304,6093.0,12176.0,UNIVERSITY DR & MCCLINTOCK DR,Tempe,No,Yes,Standard,6107.0,Westbound,-111.909736591222,33.422125791251304,30 | 62,,,,
1151,-111.92671689802799,33.4221582717561,6097.0,12179.0,UNIVERSITY DR & RURAL RD,Tempe,No,Yes,Standard,6111.0,Westbound,-111.92671689802799,33.4221582717561,30 | 62 | 72,,,,
1152,-111.938496441285,33.425598509064,5324.0,12507.0,5TH ST & MYRTLE AVE,Tempe,No,Yes,Standard,5338.0,Westbound,-111.938496441285,33.425598509064,48 | 62 | 65 | 66 | FSHF | EART | JUPI | MERC | VENU,,,,
1153,-111.940743507085,33.4255957695657,6256.0,13285.0,5TH ST & MILL AVE,Tempe,No,Yes,Standard,6270.0,Westbound,-111.940743507085,33.4255957695657,48 | 62 | VENU,,,,
1154,-111.94313918460101,33.4255900001411,9469.0,18451.0,5TH ST & ASH ST,Tempe,No,Yes,Standard,,Westbound,-111.94313918460101,33.4255900001411,62 | VENU,,,,
1155,-111.94285358744301,33.427278906030104,8921.0,13286.0,ASH AVE & 3RD ST,Tempe,No,Yes,Standard,5034.0,Northbound,-111.94285358744301,33.427278906030104,48,,,,
1156,-111.942497599095,33.4292007214261,9419.0,18402.0,S ASH AV AT W RIO SALADO PKWY,Tempe,No,Yes,Standard,12054.0,Northbound,-111.942497599095,33.4292007214261,48,,,,
1157,-111.94536954253401,33.4315379497401,8920.0,13287.0,RIO SALADO PKWY AT LINEAR PARK,Tempe,No,Yes,Standard,11353.0,Westbound,-111.94536954253401,33.4315379497401,48,,,,
1158,-111.94920931661001,33.4309328732056,9565.0,13288.0,RIO SALADO PKWY & TEMPE CENTER FOR THE ARTS,Tempe,No,Yes,Standard,11092.0,Westbound,-111.94920931661001,33.4309328732056,48,,,,
1159,-111.95203841098301,33.4310954884405,8918.0,13289.0,RIO SALADO PKWY & HARDY DR,Tempe,No,Yes,Standard,11351.0,Westbound,-111.95203841098301,33.4310954884405,48,,,,
1160,-111.961552192708,33.4295427327449,8916.0,13290.0,RIO SALADO PKWY & PRIEST DR,Tempe,No,Yes,Standard,11349.0,Westbound,-111.961552192708,33.4295427327449,48,,,,
1161,-111.969781252071,33.4301308711862,8911.0,13291.0,RIO SALADO PKWY AT 2050 WEST,Tempe,No,Yes,Standard,11344.0,Westbound,-111.969781252071,33.4301308711862,48,,,,
1162,-111.969724676987,33.426564074648,9420.0,14533.0,N 52ND ST & W 4TH ST,Tempe,No,Yes,Standard,12055.0,Southbound,-111.969724676987,33.426564074648,48,,,,
1163,-111.969683446797,33.4216094469369,7817.0,13292.0,52ND ST & UNIVERSITY DR,Tempe,No,Yes,Standard,9425.0,Southbound,-111.969683446797,33.4216094469369,48,,,,
1164,-111.96962623909401,33.4176854509532,7812.0,13293.0,52ND ST & MEDTRONIC WY,Tempe,No,Yes,Standard,9421.0,Southbound,-111.96962623909401,33.4176854509532,48,,,,
1165,-111.96958702915,33.4132630253161,7816.0,13294.0,52ND ST & 14TH ST,Tempe,No,Yes,Standard,9424.0,Southbound,-111.96958702915,33.4132630253161,48,,,,
1166,-111.969587810404,33.411329916217696,8912.0,13295.0,52ND ST & 16TH ST,Tempe,No,Yes,Standard,11345.0,Southbound,-111.969587810404,33.411329916217696,48,,,,
1167,-111.97772765150299,33.378033490757396,1012.0,13303.0,BASELINE RD & 48TH ST,Tempe,No,Yes,Standard,1028.0,Eastbound,-111.97772765150299,33.378033490757396,32| 48 | 77,,,,
1168,-111.97232749275601,33.3780601649048,7681.0,13304.0,BASELINE RD & ARIZONA GRAND PKWY,Tempe,No,Yes,Standard,7695.0,Eastbound,-111.97232749275601,33.3780601649048,32| 48 | 77,,,,
1169,-111.96288583812999,33.3788389989016,3503.0,13305.0,PRIEST DR & BASELINE RD,Tempe,No,Yes,Standard,3517.0,Northbound,-111.96288583812999,33.3788389989016,32| 48 | 56,,,,
1170,-111.96113731843,33.3840662699817,5236.0,13259.0,PRIEST DR & AZ MILLS EAST,Tempe,No,Yes,Standard,5250.0,Southbound,-111.96113731843,33.3840662699817,56,,,,
1171,-111.961228737663,33.380837450532695,3495.0,13306.0,PRIEST DR & DARROW DR,Tempe,No,Yes,Standard,3509.0,Northbound,-111.961228737663,33.380837450532695,56,,,,
1172,-111.962039575478,33.3804059085831,5231.0,13260.0,PRIEST DR & DARROW DR,Tempe,No,Yes,Standard,5245.0,Southbound,-111.962039575478,33.3804059085831,56 | 77,,,,
1173,-111.96386370586201,33.3784640398855,6288.0,13261.0,BASELINE RD & PRIEST DR,Tempe,No,Yes,Standard,6302.0,Westbound,-111.96386370586201,33.3784640398855,32| 48 | 77,,,,
1174,-111.970103220898,33.3784035440994,8910.0,13262.0,BASELINE RD & WENDLER DR,Tempe,No,Yes,Standard,11343.0,Westbound,-111.970103220898,33.3784035440994,32| 48 | 77,,,,
1175,-111.97236643382799,33.3784008467485,6287.0,13263.0,BASELINE RD & ARIZONA GRAND PKWY,Tempe,No,Yes,Standard,6301.0,Westbound,-111.97236643382799,33.3784008467485,32| 48 | 77,,,,
1176,-111.97561934119499,33.3783715248576,7679.0,13264.0,BASELINE RD & CALLE LOS CERROS,Tempe,No,Yes,Standard,7693.0,Westbound,-111.97561934119499,33.3783715248576,32| 48 | 77,,,,
1177,-111.97823101784701,33.378846457478105,4936.0,13265.0,48TH ST & BASELINE RD,Phoenix,No,Yes,Standard,4950.0,Northbound,-111.97823101784701,33.378846457478105,48,,,,
1178,-111.978226407247,33.3821735697367,5246.0,13266.0,48TH ST & MINTON DR,Phoenix,No,Yes,Standard,5260.0,Northbound,-111.978226407247,33.3821735697367,48,,,,
1179,-111.97822844182,33.3859208444934,3233.0,13267.0,48TH ST & VINEYARD RD,Phoenix,No,Yes,Standard,3247.0,Northbound,-111.97822844182,33.3859208444934,48,,,,
1180,-111.978234442471,33.389354427076896,3224.0,13268.0,48TH ST & ALTA VISTA RD,Phoenix,No,Yes,Standard,3238.0,Northbound,-111.978234442471,33.389354427076896,48,,,,
1181,-111.978157216769,33.3931251334561,3237.0,13269.0,48TH ST & SOUTHERN AVE,Tempe,No,Yes,Standard,3251.0,Northbound,-111.978157216769,33.3931251334561,48 | 61,,,,
1182,-111.978190574253,33.3967738743155,3236.0,13270.0,48TH ST & FAIRMONT DR,Tempe,No,Yes,Standard,3250.0,Northbound,-111.978190574253,33.3967738743155,48,,,,
1183,-111.97812380658999,33.400340532293804,3235.0,13271.0,48TH ST & ALAMEDA DR,Tempe,No,Yes,Standard,3249.0,Northbound,-111.97812380658999,33.400340532293804,48,,,,
1184,-111.978123254213,33.4033796632005,8909.0,13272.0,48TH ST NS WESTCOURT WY,Tempe,No,Yes,Standard,11342.0,Northbound,-111.978123254213,33.4033796632005,48,,,,
1185,-111.977504851844,33.407190435218396,1088.0,13089.0,BROADWAY RD & 48TH ST,Tempe,No,Yes,Standard,1104.0,Eastbound,-111.977504851844,33.407190435218396,45 | 48,,,,
1186,-111.96939754076,33.411796497313105,8914.0,13273.0,52ND ST & 16TH ST,Tempe,No,Yes,Standard,11347.0,Northbound,-111.96939754076,33.411796497313105,48,,,,
1187,-111.96939110249,33.4138338523114,7814.0,13274.0,52ND ST & 14TH ST,Tempe,No,Yes,Standard,9422.0,Northbound,-111.96939110249,33.4138338523114,48,,,,
1188,-111.969425040478,33.4179789266961,3247.0,12128.0,52ND ST & 10TH PL,Tempe,No,Yes,Standard,3261.0,Northbound,-111.969425040478,33.4179789266961,48,,,,
1189,-111.969539613227,33.4266441881151,8913.0,13276.0,52ND ST & 4TH ST,Tempe,No,Yes,Standard,11346.0,Northbound,-111.969539613227,33.4266441881151,48,,,,
1190,-111.96939183058599,33.4303360633186,8915.0,13277.0,RIO SALADO PKWY NS 1894 WEST,Tempe,No,Yes,Standard,11348.0,Eastbound,-111.96939183058599,33.4303360633186,48,,,,
1191,-111.9615085981,33.4292751324593,8917.0,13278.0,RIO SALADO PKWY & PRIEST DR,Tempe,No,Yes,Standard,11350.0,Eastbound,-111.9615085981,33.4292751324593,48,,,,
1192,-111.951616234978,33.430897001374504,8919.0,13279.0,RIO SALADO PKWY & HARDY DR,Tempe,No,Yes,Standard,11352.0,Eastbound,-111.951616234978,33.430897001374504,48,,,,
1193,-111.94680834794599,33.4308514870083,9566.0,13280.0,RIO SALADO PKWY & LAKESIDE DR,Tempe,No,Yes,Standard,11093.0,Eastbound,-111.94680834794599,33.4308514870083,48,,,,
1194,-111.942720783794,33.4289049236602,5021.0,13281.0,ASH AVE & RIO SALADO PKWY,Tempe,No,Yes,Standard,5035.0,Southbound,-111.942720783794,33.4289049236602,48 | 62,,,,
1195,-111.943006536334,33.4274409344035,5020.0,13282.0,ASH AVE & 3RD ST,Tempe,No,Yes,Standard,5034.0,Southbound,-111.943006536334,33.4274409344035,48 | 62,,,,
1196,-111.942948652089,33.425392755630604,996.0,13283.0,5TH ST & ASH AVE,Tempe,No,Yes,Standard,1012.0,Eastbound,-111.942948652089,33.425392755630604,48 | 62 | VENU,,,,
1197,-111.94069836490299,33.425404857528896,997.0,13284.0,5TH ST & MAPLE AVE,Tempe,No,Yes,Standard,1013.0,Eastbound,-111.94069836490299,33.425404857528896,48 | 62 | VENU,,,,
1198,-111.93881786995199,33.425370174535104,11.0,12654.0,5TH ST & MYRTLE AVE,Tempe,No,Yes,Standard,27.0,Eastbound,-111.93881786995199,33.425370174535104,48 | 62 | 65 | 66 | FSHF | EART | JUPI | VENU,,,,
1199,-111.955814398846,33.442861058789,3033.0,10242.0,PRIEST DR & WASHINGTON ST,Tempe,No,Yes,Standard,3047.0,Northbound,-111.955814398846,33.442861058789,1 | 56,,,,
1200,-111.955212554346,33.4442194514814,4726.0,10243.0,PRIEST DR & CENTER PKWY,Tempe,No,Yes,Standard,4740.0,Southbound,-111.955212554346,33.4442194514814,56,,,,
1201,-111.95745785660601,33.4423293756168,4729.0,13628.0,PRIEST DR & WASHINGTON ST,Tempe,No,Yes,Standard,4743.0,Southbound,-111.95745785660601,33.4423293756168,56,,,,
1202,-111.961147150195,33.42895911949,5247.0,13629.0,PRIEST DR & RIO SALADO PKWY,Tempe,No,Yes,Standard,5261.0,Southbound,-111.961147150195,33.42895911949,56,,,,
1203,-111.961156622668,33.4253278027158,5233.0,13630.0,PRIEST DR & 5TH ST,Tempe,No,Yes,Standard,5247.0,Southbound,-111.961156622668,33.4253278027158,56 | VENU,,,,
1204,-111.961069726264,33.4212667445659,5250.0,13631.0,PRIEST DR & UNIVERSITY DR,Tempe,No,Yes,Standard,5264.0,Southbound,-111.961069726264,33.4212667445659,56,,,,
1205,-111.96099469301599,33.4173732823472,5230.0,13633.0,PRIEST DR & 11TH ST,Tempe,No,Yes,Standard,5244.0,Southbound,-111.96099469301599,33.4173732823472,56,,,,
1206,-111.960987076921,33.4149579789403,7651.0,13634.0,PRIEST DR & 13TH ST,Tempe,No,Yes,Standard,7665.0,Southbound,-111.960987076921,33.4149579789403,56,,,,
1207,-111.960954075842,33.4128558429567,5232.0,13635.0,PRIEST DR & 14TH ST,Tempe,No,Yes,Standard,5246.0,Southbound,-111.960954075842,33.4128558429567,56,,,,
1208,-111.96095419278299,33.410139398068196,5229.0,13636.0,PRIEST DR & 18TH ST,Tempe,No,Yes,Standard,5243.0,Southbound,-111.96095419278299,33.410139398068196,56,,,,
1209,-111.960901730273,33.4069959218392,5240.0,13637.0,PRIEST DR & BROADWAY RD,Tempe,No,Yes,Standard,5254.0,Southbound,-111.960901730273,33.4069959218392,56,,,,
1210,-111.960900081502,33.4040034827957,7652.0,13638.0,PRIEST DR & FOUNTAINHEAD PKWY,Tempe,No,Yes,Standard,7666.0,Southbound,-111.960900081502,33.4040034827957,56,,,,
1211,-111.960901536054,33.399857832060796,5235.0,13639.0,PRIEST DR & ALAMEDA DR,Tempe,No,Yes,Standard,5249.0,Southbound,-111.960901536054,33.399857832060796,56,,,,
1212,-111.960956321577,33.3961695093612,5243.0,13640.0,PRIEST DR & FAIRMONT DR,Tempe,No,Yes,Standard,5257.0,Southbound,-111.960956321577,33.3961695093612,56,,,,
1213,-111.960961027463,33.3921570835127,5248.0,13641.0,PRIEST DR & SOUTHERN AVE,Tempe,No,Yes,Standard,5262.0,Southbound,-111.960961027463,33.3921570835127,56,,,,
1214,-111.960982446096,33.389967570764,5245.0,13642.0,PRIEST DR & LA JOLLA DR,Tempe,No,Yes,Standard,5259.0,Southbound,-111.960982446096,33.389967570764,56,,,,
1215,-111.96108387798701,33.388417759962,7654.0,13643.0,PRIEST DR & US 60,Tempe,No,Yes,Standard,7668.0,Southbound,-111.96108387798701,33.388417759962,56,,,,
1223,-111.96330787811002,33.3597847998777,4946.0,13651.0,56TH ST & CARMEN ST,Tempe,No,Yes,Standard,4960.0,Southbound,-111.96330787811002,33.3597847998777,56,,,,
1224,-111.963296414536,33.357773248379196,5239.0,13652.0,PRIEST DR & BELL DE MAR DR,Tempe,No,Yes,Standard,5253.0,Southbound,-111.963296414536,33.357773248379196,56,,,,
1225,-111.96327141043001,33.355341685837494,5242.0,13653.0,PRIEST DR & DRAKE DR,Tempe,No,Yes,Standard,5256.0,Southbound,-111.96327141043001,33.355341685837494,56,,,,
1226,-111.963313325975,33.3525249698426,5249.0,13654.0,PRIEST DR & TODD DR,Tempe,No,Yes,Standard,5263.0,Southbound,-111.963313325975,33.3525249698426,56,,,,
1227,-111.96292890639201,33.351177682082,5244.0,13655.0,PRIEST DR & GROVE PKWY,Tempe,No,Yes,Standard,5258.0,Southbound,-111.96292890639201,33.351177682082,56,,,,
1228,-111.96331359789,33.3486247864864,9449.0,18438.0,S PRIEST DR & W ELLIOT RD,Tempe,No,Yes,Standard,12042.0,Southbound,-111.96331359789,33.3486247864864,56,,,,
1229,-111.96329543716101,33.345145760855395,9450.0,18439.0,S PRIEST DR & W AUTO DR,Tempe,No,Yes,Standard,12062.0,Southbound,-111.96329543716101,33.345145760855395,56,,,,
1230,-111.96335536116501,33.3396742577742,9451.0,18440.0,S PRIEST DR & W RUBY DR,Tempe,No,Yes,Standard,12063.0,Southbound,-111.96335536116501,33.3396742577742,56,,,,
1231,-111.963296109788,33.3341265723623,9452.0,18441.0,S PRIEST DR & W WARNER RD,Tempe,No,Yes,Standard,12064.0,Southbound,-111.963296109788,33.3341265723623,56,,,,
1232,-111.96293449807699,33.320829365415605,9444.0,18433.0,S PRIEST DR & W RAY RD,Tempe,No,Yes,Standard,12043.0,Northbound,-111.96293449807699,33.320829365415605,56,,,,
1233,-111.962970215303,33.3270244658475,9445.0,18434.0,S PRIEST DR NS W KNOX RD,Tempe,No,Yes,Standard,12056.0,Northbound,-111.962970215303,33.3270244658475,56,,,,
1234,-111.96297535302,33.3318369244953,9446.0,18435.0,S PRIEST DR & W GREENTREE DR,Tempe,No,Yes,Standard,12057.0,Northbound,-111.96297535302,33.3318369244953,56,,,,
1235,-111.96292590278601,33.3351122756292,7993.0,14272.0,PRIEST DR & WARNER RD,Tempe,No,Yes,Standard,9771.0,Northbound,-111.96292590278601,33.3351122756292,56 | 65,,,,
1236,-111.96293354493,33.340888858967396,9447.0,18436.0,S PRIEST DR & RUBY DR,Tempe,No,Yes,Standard,12058.0,Northbound,-111.96293354493,33.340888858967396,56,,,,
1237,-111.962965226662,33.3458186950988,9448.0,18437.0,S PRIEST DR & W AUTO DR,Tempe,No,Yes,Standard,12059.0,Northbound,-111.962965226662,33.3458186950988,56,,,,
1238,-111.962917498461,33.3495326907769,3505.0,13604.0,PRIEST DR & ELLIOT RD,Tempe,No,Yes,Standard,3519.0,Northbound,-111.962917498461,33.3495326907769,56,,,,
1239,-111.962998576672,33.3526714569119,3493.0,13605.0,PRIEST DR & TODD DR,Tempe,No,Yes,Standard,3507.0,Northbound,-111.962998576672,33.3526714569119,56,,,,
1240,-111.962959030594,33.3555687455461,3491.0,13606.0,PRIEST DR & DRAKE DR,Tempe,No,Yes,Standard,3505.0,Northbound,-111.962959030594,33.3555687455461,56,,,,
1241,-111.963008578261,33.3576442855287,3490.0,13607.0,PRIEST DR & BELL DE MAR DR,Tempe,No,Yes,Standard,3504.0,Northbound,-111.963008578261,33.3576442855287,56,,,,
1246,-111.960737733204,33.3850338810932,3502.0,13612.0,PRIEST DR & AZ MILLS EAST,Tempe,No,Yes,Standard,3516.0,Northbound,-111.960737733204,33.3850338810932,56,,,,
1247,-111.960659990435,33.388978335854695,3507.0,13613.0,PRIEST DR & MANHATTON DR,Tempe,No,Yes,Standard,3521.0,Northbound,-111.960659990435,33.388978335854695,56,,,,
1248,-111.9605274791,33.3935038765869,3509.0,13615.0,PRIEST DR & SOUTHERN AVE,Tempe,No,Yes,Standard,3523.0,Northbound,-111.9605274791,33.3935038765869,56,,,,
1249,-111.960607135616,33.3967273083944,3506.0,13616.0,PRIEST DR & FAIRMONT DR,Tempe,No,Yes,Standard,3520.0,Northbound,-111.960607135616,33.3967273083944,56,,,,
1250,-111.96058213190099,33.400994594766196,3500.0,13617.0,PRIEST DR & ALAMEDA DR,Tempe,No,Yes,Standard,3514.0,Northbound,-111.96058213190099,33.400994594766196,56,,,,
1251,-111.96062381461701,33.4040108604649,3498.0,13618.0,PRIEST DR & 23RD ST,Tempe,No,Yes,Standard,3512.0,Northbound,-111.96062381461701,33.4040108604649,56,,,,
1252,-111.960632670635,33.4081802223923,3504.0,13619.0,PRIEST DR & BROADWAY RD,Tempe,No,Yes,Standard,3518.0,Northbound,-111.960632670635,33.4081802223923,56,,,,
1253,-111.960627472426,33.4097918735225,3492.0,13620.0,PRIEST DR & 17TH ST,Tempe,No,Yes,Standard,3506.0,Northbound,-111.960627472426,33.4097918735225,56,,,,
1254,-111.96068420636601,33.4126693622546,3497.0,13621.0,PRIEST DR & 14TH ST,Tempe,No,Yes,Standard,3511.0,Northbound,-111.96068420636601,33.4126693622546,56,,,,
1255,-111.960655687672,33.4150383803542,7657.0,13622.0,PRIEST DR & 13TH ST,Tempe,No,Yes,Standard,7671.0,Northbound,-111.960655687672,33.4150383803542,56,,,,
1256,-111.960691353288,33.4170252910632,3511.0,13623.0,PRIEST DR & 11TH ST,Tempe,No,Yes,Standard,3525.0,Northbound,-111.960691353288,33.4170252910632,56,,,,
1257,-111.96071504812599,33.4193436798068,7658.0,13624.0,PRIEST DR & ELNA RAE ST,Tempe,No,Yes,Standard,7672.0,Northbound,-111.96071504812599,33.4193436798068,56,,,,
1258,-111.960732371831,33.4223747349538,3510.0,13625.0,PRIEST DR & UNIVERSITY DR,Tempe,No,Yes,Standard,3524.0,Northbound,-111.960732371831,33.4223747349538,56,,,,
1259,-111.96077505978,33.4258899664947,3499.0,13626.0,PRIEST DR & 5TH ST,Tempe,No,Yes,Standard,3513.0,Northbound,-111.96077505978,33.4258899664947,56,,,,
1260,-111.96076121924601,33.4302592891844,3508.0,13627.0,PRIEST DR & RIO SALADO PKWY,Tempe,No,Yes,Standard,3522.0,Northbound,-111.96076121924601,33.4302592891844,56,,,,
1261,-111.926101385411,33.4292249105115,3550.0,14693.0,RURAL RD & RIO SALADO PKWY,Tempe,No,Yes,Standard,3564.0,Northbound,-111.926101385411,33.4292249105115,72,,,,
1262,-111.92606067818001,33.4344240363162,3041.0,14694.0,RURAL RD & PLAYA DEL NORTE,Tempe,No,Yes,Standard,3055.0,Northbound,-111.92606067818001,33.4344240363162,72,,,,
1264,-111.92615329993099,33.440736603305204,3056.0,14696.0,SCOTTSDALE RD & CURRY RD,Tempe,No,Yes,Standard,3070.0,Northbound,-111.92615329993099,33.440736603305204,72,,,,
1265,-111.92625960697501,33.443752263244804,7715.0,14697.0,SCOTTSDALE RD & WEBER DR,Tempe,No,Yes,Standard,7729.0,Northbound,-111.92625960697501,33.443752263244804,72,,,,
1266,-111.92626910836901,33.4471275767305,3063.0,14698.0,SCOTTSDALE RD & HANCOCK AVE,Tempe,No,Yes,Standard,3077.0,Northbound,-111.92626910836901,33.4471275767305,72 | EART,,,,
1267,-111.926272398782,33.452221885699004,3075.0,14699.0,SCOTTSDALE RD & MCKELLIPS RD,Tempe,No,Yes,Standard,3089.0,Northbound,-111.926272398782,33.452221885699004,72 | EART,,,,
1268,-111.92621490406201,33.4543661342292,3090.0,14700.0,SCOTTSDALE RD & FILLMORE ST,Tempe,No,Yes,Standard,3104.0,Northbound,-111.92621490406201,33.4543661342292,72 | EART,,,,
1269,-111.926586690287,33.4543927376888,4755.0,14807.0,SCOTTSDALE RD & FILLMORE ST,Tempe,No,Yes,Standard,4769.0,Southbound,-111.926586690287,33.4543927376888,72 | EART | MRT,,,,
1270,-111.926638696532,33.4509060874416,4770.0,14808.0,SCOTTSDALE RD & MCKELLIPS RD,Tempe,No,Yes,Standard,4784.0,Southbound,-111.926638696532,33.4509060874416,72 | EART,,,,
1271,-111.926628522215,33.4486609614486,4749.0,14809.0,SCOTTSDALE RD & CAVALIER DR,Tempe,No,Yes,Standard,4763.0,Southbound,-111.926628522215,33.4486609614486,72 | EART,,,,
1272,-111.92661857654,33.4463505351385,7712.0,14810.0,SCOTTSDALE RD & HANCOCK DR,Tempe,No,Yes,Standard,7726.0,Southbound,-111.92661857654,33.4463505351385,72 | EART,,,,
1273,-111.926568828636,33.4432275759441,7713.0,14811.0,SCOTTSDALE RD & WEBER DR,Tempe,No,Yes,Standard,7727.0,Southbound,-111.926568828636,33.4432275759441,72,,,,
1274,-111.92650400698,33.4399664952403,4790.0,14812.0,SCOTTSDALE RD & CURRY RD,Tempe,No,Yes,Standard,4804.0,Southbound,-111.92650400698,33.4399664952403,72,,,,
1275,-111.92645663876301,33.4380826988874,4733.0,14813.0,RURAL RD & GILBERT DR,Tempe,No,Yes,Standard,4747.0,Southbound,-111.92645663876301,33.4380826988874,72,,,,
1276,-111.926452448652,33.4342602827009,4731.0,14814.0,RURAL RD & PLAYA DEL NORTE,Tempe,No,Yes,Standard,4745.0,Southbound,-111.926452448652,33.4342602827009,72,,,,
1277,-111.92644849115601,33.428337525696605,5282.0,14815.0,RURAL RD & RIO SALADO PKWY,Tempe,No,Yes,Standard,5296.0,Southbound,-111.92644849115601,33.428337525696605,72,,,,
1278,-111.926458652765,33.4240107089818,5260.0,14816.0,RURAL RD & 6TH ST,Tempe,No,Yes,Standard,5274.0,Southbound,-111.926458652765,33.4240107089818,72 | FSHF,,,,
1279,-111.926478572801,33.418279680962,5287.0,14817.0,RURAL RD & TERRACE RD,Tempe,No,Yes,Standard,5301.0,Southbound,-111.926478572801,33.418279680962,72,,,,
1280,-111.92644535479499,33.4151340129922,5263.0,14818.0,RURAL RD & APACHE BLVD,Tempe,No,Yes,Standard,5277.0,Southbound,-111.92644535479499,33.4151340129922,72,,,,
1281,-111.92644295008999,33.4126728225319,5258.0,14819.0,RURAL RD & SPENCE AVE,Tempe,No,Yes,Standard,5272.0,Southbound,-111.92644295008999,33.4126728225319,72 | MARS,,,,
1282,-111.926414647957,33.4102299477153,9468.0,18497.0,RURAL RD & BROADWAY RD,Tempe,No,Yes,Standard,5288.0,Southbound,-111.926414647957,33.4102299477153,72,,,,
1283,-111.926438703804,33.4079937897844,5267.0,,RURAL RD & BROADWAY RD,Tempe,No,Yes,Standard,5281.0,Southbound,-111.926438703804,33.4079937897844,72,,,,
1284,-111.926453011332,33.403157571594804,5266.0,14822.0,RURAL RD & BROADMOR DR,Tempe,No,Yes,Standard,5280.0,Southbound,-111.926453011332,33.403157571594804,72,,,,
1285,-111.926459672463,33.3996784164012,5261.0,14823.0,RURAL RD & ALAMEDA DR,Tempe,No,Yes,Standard,5275.0,Southbound,-111.926459672463,33.3996784164012,72 | 520,,,,
1286,-111.92646988567101,33.397431920353,5291.0,14824.0,RURAL RD & WESLEYAN DR,Tempe,No,Yes,Standard,5305.0,Southbound,-111.92646988567101,33.397431920353,72 | 520,,,,
1287,-111.92647411230499,33.3948357120203,5275.0,14825.0,RURAL RD & GENEVA DR,Tempe,No,Yes,Standard,5289.0,Southbound,-111.92647411230499,33.3948357120203,72,,,,
1288,-111.926546896227,33.3924469356054,5284.0,14826.0,RURAL RD & SOUTHERN AVE,Tempe,No,Yes,Standard,5298.0,Southbound,-111.926546896227,33.3924469356054,72 | JUPI,,,,
1289,-111.92656603360399,33.389223831292895,5278.0,14827.0,RURAL RD & LA JOLLA DR,Tempe,No,Yes,Standard,5292.0,Southbound,-111.92656603360399,33.389223831292895,72,,,,
1290,-111.926594747257,33.3874434234843,5277.0,14828.0,RURAL RD & HERMOSA DR,Tempe,No,Yes,Standard,5291.0,Southbound,-111.926594747257,33.3874434234843,72,,,,
1291,-111.926697617792,33.3843722220495,5286.0,14829.0,RURAL RD & SUPERSTITION FRWY,Tempe,No,Yes,Standard,5300.0,Southbound,-111.926697617792,33.3843722220495,72,,,,
1292,-111.927327696393,33.3817358010313,5268.0,14830.0,RURAL RD & CARTER DR,Tempe,No,Yes,Standard,5282.0,Southbound,-111.927327696393,33.3817358010313,72,,,,
1293,-111.928685148039,33.379601761248104,5279.0,14831.0,RURAL RD & MINTON DR,Tempe,No,Yes,Standard,5293.0,Southbound,-111.928685148039,33.379601761248104,72,,,,
1294,-111.928895400375,33.3776457978928,5264.0,14832.0,RURAL RD & BASELINE RD,Tempe,No,Yes,Standard,5278.0,Southbound,-111.928895400375,33.3776457978928,72,,,,
1295,-111.92879527726299,33.3749333985297,5280.0,14833.0,RURAL RD & OXFORD DR,Tempe,No,Yes,Standard,5294.0,Southbound,-111.92879527726299,33.3749333985297,72,,,,
1296,-111.92878833548599,33.3718179771309,5270.0,14834.0,RURAL RD & CORNELL DR,Tempe,No,Yes,Standard,5284.0,Southbound,-111.92878833548599,33.3718179771309,72,,,,
1297,-111.92877910144199,33.3670854361655,5292.0,14835.0,RURAL RD & WESTCHESTER DR,Tempe,No,Yes,Standard,5306.0,Southbound,-111.92877910144199,33.3670854361655,72,,,,
1298,-111.928760632619,33.3633169398568,5276.0,14836.0,RURAL RD & GUADALUPE RD,Tempe,No,Yes,Standard,5290.0,Southbound,-111.928760632619,33.3633169398568,72,,,,
1299,-111.928686285215,33.3605346865883,5285.0,14837.0,RURAL RD & STRAHAN DR,Tempe,No,Yes,Standard,5299.0,Southbound,-111.928686285215,33.3605346865883,72,,,,
1300,-111.928683083197,33.3574629393798,5265.0,14838.0,RURAL RD & BELL DE MAR DR,Tempe,No,Yes,Standard,5279.0,Southbound,-111.928683083197,33.3574629393798,72,,,,
1301,-111.928695614484,33.3553872567558,5271.0,14839.0,RURAL RD & DIVOT DR,Tempe,No,Yes,Standard,5285.0,Southbound,-111.928695614484,33.3553872567558,72,,,,
1302,-111.92867504291999,33.353098947511704,5294.0,14840.0,RURAL RD & TODD DR,Tempe,No,Yes,Standard,5308.0,Southbound,-111.92867504291999,33.353098947511704,72,,,,
1303,-111.928694668336,33.3487029443655,5273.0,14841.0,RURAL RD & ELLIOT RD,Tempe,No,Yes,Standard,5287.0,Southbound,-111.928694668336,33.3487029443655,72 | 522,,,,
1304,-111.92863275453999,33.3459539945294,5289.0,14842.0,RURAL RD & VINEDO LN,Tempe,No,Yes,Standard,5303.0,Southbound,-111.92863275453999,33.3459539945294,72 | 522,,,,
1305,-111.928600455998,33.3440033327715,5283.0,14843.0,RURAL RD & SECRETARIAT DR,Tempe,No,Yes,Standard,5297.0,Southbound,-111.928600455998,33.3440033327715,72 | 522,,,,
1306,-111.928610040219,33.341626164764904,5269.0,14844.0,RURAL RD & CARVER RD,Tempe,No,Yes,Standard,5283.0,Southbound,-111.928610040219,33.341626164764904,72 | 522,,,,
1307,-111.928560769457,33.338067626393,5272.0,14845.0,RURAL RD & EL FREDA DR,Tempe,No,Yes,Standard,5286.0,Southbound,-111.928560769457,33.338067626393,72 | 522,,,,
1308,-111.928239160318,33.3350968518317,3548.0,14664.0,RURAL RD & WARNER RD,Tempe,No,Yes,Standard,3562.0,Northbound,-111.928239160318,33.3350968518317,72 | 522,,,,
1309,-111.928499555916,33.331137986589304,5259.0,14847.0,RURAL RD & LA VIEVE LN,Tempe,No,Yes,Standard,5273.0,Southbound,-111.928499555916,33.331137986589304,72,,,,
1310,-111.92845150344401,33.3276064764959,5293.0,14848.0,RURAL RD & KNOX RD,Tempe,No,Yes,Standard,5307.0,Southbound,-111.92845150344401,33.3276064764959,72,,,,
1311,-111.928381619606,33.323482375736,5262.0,14849.0,RURAL RD & ALEXANDER BLVD,Tempe,No,Yes,Standard,5276.0,Southbound,-111.928381619606,33.323482375736,72,,,,
1321,-111.92805926415001,33.3240650756875,3524.0,14661.0,RURAL RD & ALEXANDER BLVD,Tempe,No,Yes,Standard,3538.0,Northbound,-111.92805926415001,33.3240650756875,72,,,,
1322,-111.928128089697,33.327774568365,3537.0,14662.0,RURAL RD & KNOX RD,Tempe,No,Yes,Standard,3551.0,Northbound,-111.928128089697,33.327774568365,72,,,,
1323,-111.928218074501,33.3311852379197,3539.0,14663.0,RURAL RD & LA VIEVE LN,Tempe,No,Yes,Standard,3553.0,Northbound,-111.928218074501,33.3311852379197,72,,,,
1324,-111.928594399258,33.3343205638164,5290.0,14846.0,RURAL RD & WARNER RD,Tempe,No,Yes,Standard,5304.0,Southbound,-111.928594399258,33.3343205638164,72,,,,
1325,-111.928252829877,33.3385036371132,3532.0,14665.0,RURAL RD & EL FREDA DR,Tempe,No,Yes,Standard,3546.0,Northbound,-111.928252829877,33.3385036371132,72 | 522,,,,
1326,-111.92829063378099,33.3422553207262,3531.0,14666.0,RURAL RD & CARVER RD,Tempe,No,Yes,Standard,3545.0,Northbound,-111.92829063378099,33.3422553207262,72 | 522,,,,
1327,-111.928289376099,33.3438916196626,3551.0,14667.0,RURAL RD & SECRETARIAT DR,Tempe,No,Yes,Standard,3565.0,Northbound,-111.928289376099,33.3438916196626,72 | 522,,,,
1328,-111.92830627909402,33.346348482550304,3519.0,14668.0,RURAL RD & VINEDO LN,Tempe,No,Yes,Standard,3533.0,Northbound,-111.92830627909402,33.346348482550304,72 | 522,,,,
1329,-111.928285128811,33.3496402293287,3533.0,14669.0,RURAL RD & ELLIOT RD,Tempe,No,Yes,Standard,3547.0,Northbound,-111.928285128811,33.3496402293287,72,,,,
1330,-111.92833883299801,33.3535724137969,3552.0,14670.0,RURAL RD & STEPHENS DR,Tempe,No,Yes,Standard,3566.0,Northbound,-111.92833883299801,33.3535724137969,72,,,,
1331,-111.92838873709199,33.358209074689604,3527.0,14671.0,RURAL RD & BELL DE MAR DR,Tempe,No,Yes,Standard,3541.0,Northbound,-111.92838873709199,33.358209074689604,72,,,,
1332,-111.928441852768,33.3611757309727,3544.0,14672.0,RURAL RD & VAUGHN DR,Tempe,No,Yes,Standard,3558.0,Northbound,-111.928441852768,33.3611757309727,72,,,,
1333,-111.928422663433,33.3642456570078,3535.0,14673.0,RURAL RD & GUADALUPE RD,Tempe,No,Yes,Standard,3549.0,Northbound,-111.928422663433,33.3642456570078,72,,,,
1334,-111.92846010201201,33.3677153338647,3549.0,14674.0,RURAL RD & WESTCHESTER DR,Tempe,No,Yes,Standard,3563.0,Northbound,-111.92846010201201,33.3677153338647,72,,,,
1335,-111.928506962558,33.3725604614003,3542.0,14675.0,RURAL RD & SOUTHSHORE DR,Tempe,No,Yes,Standard,3556.0,Northbound,-111.928506962558,33.3725604614003,72,,,,
1336,-111.928538138303,33.3742358610387,3521.0,14676.0,RURAL RD & OXFORD DR,Tempe,No,Yes,Standard,3535.0,Northbound,-111.928538138303,33.3742358610387,72,,,,
1337,-111.928488048905,33.3788524321184,3526.0,14677.0,RURAL RD & BASELINE RD,Tempe,No,Yes,Standard,3540.0,Northbound,-111.928488048905,33.3788524321184,72,,,,
1338,-111.927102337992,33.3815189269307,3530.0,14678.0,RURAL RD & LAKESHORE DR,Tempe,No,Yes,Standard,3544.0,Northbound,-111.927102337992,33.3815189269307,72,,,,
1339,-111.92627429371299,33.3842032089923,3553.0,14679.0,RURAL RD & SUPERSTITION FREEWAY,Tempe,No,Yes,Standard,3567.0,Northbound,-111.92627429371299,33.3842032089923,72,,,,
1340,-111.926272324197,33.388040803492196,3536.0,14680.0,RURAL RD & HERMOSA DR,Tempe,No,Yes,Standard,3550.0,Northbound,-111.926272324197,33.388040803492196,72,,,,
1341,-111.92623976205299,33.3895957918069,3538.0,14681.0,RURAL RD & LA JOLLA DR,Tempe,No,Yes,Standard,3552.0,Northbound,-111.92623976205299,33.3895957918069,72,,,,
1342,-111.926095965443,33.3940611814963,3541.0,14682.0,RURAL RD & SOUTHERN AVE,Tempe,No,Yes,Standard,3555.0,Northbound,-111.926095965443,33.3940611814963,72 | 520,,,,
1343,-111.926169588454,33.3972490148015,3540.0,14683.0,RURAL RD & LOYOLA DR,Tempe,No,Yes,Standard,3554.0,Northbound,-111.926169588454,33.3972490148015,72 | 520,,,,
1344,-111.92612161321101,33.4006444039261,3523.0,14684.0,RURAL RD & ALAMEDA DR,Tempe,No,Yes,Standard,3537.0,Northbound,-111.92612161321101,33.4006444039261,72,,,,
1345,-111.92613907963998,33.4037567470843,3528.0,14685.0,RURAL RD & BROADMOR DR,Tempe,No,Yes,Standard,3542.0,Northbound,-111.92613907963998,33.4037567470843,72,,,,
1346,-111.92609278243299,33.4080495601337,3529.0,18164.0,RURAL RD & BROADWAY RD,Tempe,No,Yes,Standard,3543.0,Northbound,-111.92609278243299,33.4080495601337,72,,,,
1347,-111.926123478263,33.4106849151089,3547.0,14687.0,RURAL RD & VISTA DEL CERRO DR,Tempe,No,Yes,Standard,3561.0,Northbound,-111.926123478263,33.4106849151089,72 | MARS,,,,
1348,-111.92611344104999,33.413173143202,3543.0,14688.0,RURAL RD & SPENCE AVE,Tempe,No,Yes,Standard,3557.0,Northbound,-111.92611344104999,33.413173143202,72,,,,
1349,-111.92605340598101,33.4150705387516,3525.0,14689.0,RURAL RD & APACHE BLVD,Tempe,No,Yes,Standard,3539.0,Northbound,-111.92605340598101,33.4150705387516,72,,,,
1350,-111.927277150129,33.420663175769,9340.0,10871.0,UNIV RURAL TC SBD LANE STOP 1 RT 72 S,Tempe,Yes,Yes,Transit Center,11921.0,Southbound,-111.927277150129,33.420663175769,72,,,,
1351,-111.931120354063,33.4220894361357,6099.0,12181.0,UNIVERSITY DR & PALO VERDE DORMS,Tempe,No,Yes,Standard,6113.0,Westbound,-111.931120354063,33.4220894361357,30 | 62 | 72 | FSHB | MARS | MERC,,,,
1352,-111.934874951791,33.4229485587768,3327.0,14169.0,COLLEGE AVE & UNIVERSITY DR,Tempe,No,Yes,Standard,3341.0,Northbound,-111.934874951791,33.4229485587768,62 | 72 | FSHB | MARS | MERC | VENU,,,,
1353,-111.926081633554,33.422799567925,3546.0,14691.0,RURAL RD & UNIVERSITY DR,Tempe,No,Yes,Standard,3560.0,Northbound,-111.926081633554,33.422799567925,72 | FSHB,,,,
1354,-111.926112562892,33.4247749168822,3522.0,14692.0,RURAL RD & 6TH ST,Tempe,No,Yes,Standard,3536.0,Northbound,-111.926112562892,33.4247749168822,72,,,,
1355,-111.962472319145,33.3780571179585,1020.0,14947.0,BASELINE RD & PRIEST DR,Tempe,No,Yes,Standard,1036.0,Eastbound,-111.962472319145,33.3780571179585,77,,,,
1356,-111.960684040643,33.3781257531725,8046.0,14948.0,BASELINE RD & DARROW DR,Tempe,No,Yes,Standard,9845.0,Eastbound,-111.960684040643,33.3781257531725,77,,,,
1357,-111.958156458523,33.378097134135295,1013.0,14949.0,BASELINE RD & BECK AVE,Tempe,No,Yes,Standard,1029.0,Eastbound,-111.958156458523,33.378097134135295,77,,,,
1358,-111.955421447032,33.3780790091662,1007.0,14950.0,BASELINE RD & TERRY LN,Tempe,No,Yes,Standard,1023.0,Eastbound,-111.955421447032,33.3780790091662,77,,,,
1359,-111.95216318115801,33.3780522298624,67.0,14951.0,BASELINE RD & HARDY DR,Tempe,No,Yes,Standard,83.0,Eastbound,-111.95216318115801,33.3780522298624,77,,,,
1360,-111.948987920562,33.3780634561209,7680.0,14952.0,HARDY DR & ROOSEVELT ST,Tempe,No,Yes,Standard,7694.0,Eastbound,-111.948987920562,33.3780634561209,77,,,,
1361,-111.945454054408,33.3780072944689,1016.0,14225.0,BASELINE RD & KYRENE RD,Tempe,No,Yes,Standard,1032.0,Eastbound,-111.945454054408,33.3780072944689,65 | 66 | 77,,,,
1362,-111.94213963185601,33.378075273986695,47.0,14953.0,BASELINE RD & ASH AVE,Tempe,No,Yes,Standard,63.0,Eastbound,-111.94213963185601,33.378075273986695,77,,,,
1363,-111.938888750201,33.378081262820004,73.0,14954.0,BASELINE RD & MILL AVE,Tempe,No,Yes,Standard,89.0,Eastbound,-111.938888750201,33.378081262820004,77,,,,
1364,-111.934845777063,33.3780949811601,63.0,14955.0,BASELINE RD & COLLEGE AVE,Tempe,No,Yes,Standard,79.0,Eastbound,-111.934845777063,33.3780949811601,77,,,,
1365,-111.927748023036,33.3781206824293,77.0,14956.0,BASELINE RD & RURAL RD,Tempe,No,Yes,Standard,93.0,Eastbound,-111.927748023036,33.3781206824293,77,,,,
1366,-111.925724393544,33.3781141125994,80.0,14957.0,BASELINE RD & JENTILLY LN,Tempe,No,Yes,Standard,96.0,Eastbound,-111.925724393544,33.3781141125994,77,,,,
1367,-111.920051540166,33.3781837106418,70.0,14958.0,BASELINE RD & LAKESHORE DR,Tempe,No,Yes,Standard,86.0,Eastbound,-111.920051540166,33.3781837106418,77,,,,
1368,-111.917246795474,33.3782322486236,43.0,14959.0,BASELINE RD & DORSEY LN,Tempe,No,Yes,Standard,59.0,Eastbound,-111.917246795474,33.3782322486236,77,,,,
1369,-111.91344277914699,33.3782571855453,71.0,14960.0,BASELINE RD & MARINE DR,Tempe,No,Yes,Standard,87.0,Eastbound,-111.91344277914699,33.3782571855453,77,,,,
1370,-111.907905404694,33.3782898821175,72.0,14961.0,BASELINE RD & MCCLINTOCK DR,Tempe,No,Yes,Standard,88.0,Eastbound,-111.907905404694,33.3782898821175,77 | 521,,,,
1371,-111.904629399151,33.3783141026784,44.0,14962.0,BASELINE RD & HAZELTON LN,Tempe,No,Yes,Standard,60.0,Eastbound,-111.904629399151,33.3783141026784,77 | 521,,,,
1372,-111.900322041894,33.3783216048298,64.0,14963.0,BASELINE RD & COUNTRY CLUB WY,Tempe,No,Yes,Standard,80.0,Eastbound,-111.900322041894,33.3783216048298,77 | 521,,,,
1373,-111.89695183732401,33.3783152884484,76.0,14964.0,BASELINE RD & RIVER DR,Tempe,No,Yes,Standard,92.0,Eastbound,-111.89695183732401,33.3783152884484,77 | 521,,,,
1374,-111.89440554446001,33.3782452213863,81.0,14965.0,BASELINE RD & PRICE RD,Tempe,No,Yes,Standard,97.0,Eastbound,-111.89440554446001,33.3782452213863,77,,,,
1375,-111.890148299446,33.3783357581121,65.0,14966.0,BASELINE RD & DON CARLOS,Mesa,No,Yes,Standard,81.0,Eastbound,-111.890148299446,33.3783357581121,77,,,,
1376,-111.884928598953,33.3783718866954,66.0,14967.0,BASELINE RD & EL DORADO,Mesa,No,Yes,Standard,82.0,Eastbound,-111.884928598953,33.3783718866954,77,,,,
