"NoName","X","Y","StopID","NextRide","Location","Juris","WaterFountain","ADA","Type_","ATIS_ID","Direction","Long","Lat","Routes","Zip","City","Address","State","AUTO_UNIQUE_ID_2020-07-27_pwewiora08_filter_bus_1000","UpdatedReverseGeocoding","TimeTaken","TransactionId","Source","ErrorMessage","Version","ComputedAPN","ComputedStreetAddress","ComputedCity","ComputedState","ComputedZip","ComputedZipPlus4"
"0","-111.82307599054501","33.4147193304186","5182.0","16020.0","MESA DR & MAIN ST","Mesa","No","No","Standard","5196.0","Southbound","-111.82307599054501","33.4147193304186","120","","","","",1,"1",1500.0053,"","AggieReverseGeocoder","",4.01,"13865023","315 E MAIN ST","Globe","AZ","85201","7411"
"1","-111.822765687811","33.4156843465566","2982.0","16001.0","MESA DR & MAIN ST","Mesa","No","No","LINK","2996.0","Northbound","-111.822765687811","33.4156843465566","120","","","","",2,"1",328.1325,"","AggieReverseGeocoder","",4.01,"13826005","410 E MAIN ST","Mesa","AZ","85203","8739"
"2","-111.822934487577","33.4257343931201","4681.0","16016.0","MESA DR & 6TH ST","Mesa","No","Yes","Standard","4695.0","Southbound","-111.822934487577","33.4257343931201","120","","","","",3,"1",1265.6236,"","AggieReverseGeocoder","",4.01,"13715003D","520 N MESA DR","Globe","AZ","85201","5958"
"3","-111.823047726262","33.422047998516696","4682.0","16017.0","MESA DR & UNIVERSITY DR","Mesa","No","Yes","Standard","4696.0","Southbound","-111.823047726262","33.422047998516696","120","","","","",4,"1",1421.8756,"","AggieReverseGeocoder","",4.01,"13862074B","310 N MESA DR","Globe","AZ","85201","6726"
"4","-111.82306940586099","33.4168833504112","4679.0","16019.0","MESA DR & 1ST ST","Mesa","No","Yes","Standard","4693.0","Southbound","-111.82306940586099","33.4168833504112","120","","","","",5,"1",1453.1049,"","AggieReverseGeocoder","",4.01,"13864035","307 E 1ST ST","Globe","AZ","85201","6707"
"5","-111.823097555623","33.410421331262896","5179.0","16021.0","MESA DR & 2ND AVE","Mesa","No","No","Standard","5193.0","Southbound","-111.823097555623","33.410421331262896","120","","","","",6,"1",1390.6273,"","AggieReverseGeocoder","",4.01,"13847032","210 S MESA DR","Apache Junction","AZ","85210","1606"
"6","-111.823089922458","33.4074277625267","5180.0","16022.0","MESA DR & BROADWAY RD","Mesa","No","Yes","Standard","5194.0","Southbound","-111.823089922458","33.4074277625267","120","","","","",7,"1",1203.1272,"","AggieReverseGeocoder","",4.01,"13936029A","361 E BROADWAY RD","Apache Junction","AZ","85210","1620"
"7","-111.823079297327","33.4031017973098","5183.0","16023.0","MESA DR & MARILYN AVE","Mesa","No","Yes","Standard","5197.0","Southbound","-111.823079297327","33.4031017973098","120","","","","",8,"1",484.3796,"","AggieReverseGeocoder","",4.01,"13935164D","640 S MESA DR","Apache Junction","AZ","85210","2546"
"8","-111.823868566666","33.3824668341569","8025.0","16027.0","COURY AVE & MESA DR","Mesa","No","No","Standard","9811.0","Westbound","-111.823868566666","33.3824668341569","120","","","","",9,"1",1265.6276,"","AggieReverseGeocoder","",4.01,"13912030","461 E AUTO CENTER DR","Mesa","AZ","85204","6500"
"9","-111.828464699819","33.3822251795024","5152.0","15991.0","LEWIS & COURY AVE","Mesa","No","Yes","Standard","5166.0","Southbound","-111.828464699819","33.3822251795024","120","","","","",10,"1",359.3811,"","AggieReverseGeocoder","",4.01,"13949001T","1840 S LEWIS","Apache Junction","AZ","85210","6234"
"10","-111.827483801307","33.380348306545","438.0","15992.0","JAVALINA AVE & LEWIS","Mesa","No","Yes","Standard","454.0","Eastbound","-111.827483801307","33.380348306545","120","","","","",11,"1",1421.8813,"","AggieReverseGeocoder","",4.01,"13949026","227 E JAVELINA AVE","Apache Junction","AZ","85210","6200"
"11","-111.82293846782801","33.3826046642914","3438.0","15993.0","MESA DR & COURY AVE","Mesa","No","Yes","Standard","3452.0","Northbound","-111.82293846782801","33.3826046642914","120","","","","",12,"1",1296.809,"","AggieReverseGeocoder","",4.01,"13912030","461 E AUTO CENTER DR","Mesa","AZ","85204","6500"
"12","-111.822832420086","33.4023387341046","3442.0","15998.0","MESA DR & FRANKLIN AVE","Mesa","No","Yes","Standard","3456.0","Northbound","-111.822832420086","33.4023387341046","120","","","","",13,"1",1500.0014,"","AggieReverseGeocoder","",4.01,"13925028","701 S MESA DR","Apache Junction","AZ","85210","2545"
"13","-111.82288032464199","33.4080023337287","3441.0","15999.0","MESA DR & BROADWAY RD","Mesa","No","Yes","Standard","3455.0","Northbound","-111.82288032464199","33.4080023337287","120","","","","",14,"1",1390.6294,"","AggieReverseGeocoder","",4.01,"13830052C","434 E BROADWAY RD","Mesa","AZ","85204","2020"
"14","-111.822835957329","33.4115779237804","3440.0","16000.0","MESA DR & 2ND AVE","Mesa","No","No","Standard","3454.0","Northbound","-111.822835957329","33.4115779237804","120","","","","",15,"1",1359.3751,"","AggieReverseGeocoder","",4.01,"13866079","144 S MESA DR","Apache Junction","AZ","85210","1474"
"15","-111.82282073613199","33.4175379166453","2979.0","16002.0","MESA DR & 1ST ST","Mesa","No","No","Standard","2993.0","Northbound","-111.82282073613199","33.4175379166453","120","","","","",16,"1",1343.7508,"","AggieReverseGeocoder","",4.01,"13826017A","402 E 1ST ST","Mesa","AZ","85203","8710"
"16","-111.822774285593","33.4197504857682","4678.0","16003.0","MESA DR & 2ND ST","Mesa","No","Yes","Standard","4692.0","Northbound","-111.822774285593","33.4197504857682","120","","","","",17,"1",1265.6258,"","AggieReverseGeocoder","",4.01,"13825106","207 N MESA DR","Globe","AZ","85201","6723"
"17","-111.82272050022499","33.4227915534926","2983.0","16004.0","MESA DR & UNIVERSITY DR","Mesa","No","Yes","Standard","2997.0","Northbound","-111.82272050022499","33.4227915534926","120","","","","",18,"1",1406.259,"","AggieReverseGeocoder","",4.01,"13714022","412 E UNIVERSITY DR","Mesa","AZ","85203","7924"
"18","-111.82268269317301","33.426166560174195","2980.0","16006.0","MESA DR & 6TH ST","Mesa","No","Yes","Standard","2994.0","Northbound","-111.82268269317301","33.426166560174195","120","","","","",19,"1",1421.8756,"","AggieReverseGeocoder","",4.01,"13711408","629 N MESA DR","Globe","AZ","85201","5111"
"19","-111.82263243162599","33.430312682268","2981.0","16007.0","MESA DR & 8TH ST","Mesa","No","No","Standard","2995.0","Northbound","-111.82263243162599","33.430312682268","120","","","","",20,"1",984.3832,"","AggieReverseGeocoder","",4.01,"13732039","843 N MESA DR","Globe","AZ","85201","4301"
"20","-111.822592020084","33.432192423379","2978.0","16008.0","MESA DR & 10TH ST","Mesa","No","No","Standard","2992.0","Northbound","-111.822592020084","33.432192423379","120","","","","",21,"1",1062.5075,"","AggieReverseGeocoder","",4.01,"13732019","406 E 10TH ST","Mesa","AZ","85203","4728"
"21","-111.82304327285802","33.435690366294196","5500.0","16009.0","BROWN RD & MESA DR","Mesa","No","Yes","Standard","5514.0","Westbound","-111.82304327285802","33.435690366294196","120","","","","",22,"1",1109.3763,"","AggieReverseGeocoder","",4.01,"13719683B","352 E BROWN RD","Globe","AZ","85201","3506"
"22","-111.828616690555","33.4350534651122","5505.0","16012.0","PASADENA & CENTER ST","Mesa","No","Yes","Standard","5519.0","Westbound","-111.828616690555","33.4350534651122","120","","","","",23,"1",1312.5034,"","AggieReverseGeocoder","",4.01,"13719681B","132 E BROWN RD","Globe","AZ","85201","3500"
"23","-111.831408161206","33.4345569085719","4499.0","16013.0","CENTER ST & BROWN ST","Mesa","No","Yes","Standard","4513.0","Southbound","-111.831408161206","33.4345569085719","120 | BUZZ","","","","",24,"1",546.8735,"","AggieReverseGeocoder","",4.01,"13720006A","35 W BROWN RD","Globe","AZ","85201","3428"
"24","-111.83144260661699","33.4308594733828","4492.0","16510.0","CENTER ST & 8TH PL","Mesa","No","Yes","Standard","4506.0","Southbound","-111.83144260661699","33.4308594733828","120 | BUZZ","","","","",25,"1",1296.8776,"","AggieReverseGeocoder","",4.01,"13722095L","860 N CENTER ST","Globe","AZ","85201","4201"
"25","-111.801074954184","33.45080735204","7619.0","16105.0","JUNE ST & LAZONA DR","Mesa","No","No","Standard","7633.0","Westbound","-111.801074954184","33.45080735204","128","","","","",26,"1",1515.6246,"","AggieReverseGeocoder","",4.01,"13632087","1415 E MCKELLIPS RD","Mesa","AZ","85203","2723"
"26","-111.80280259724199","33.4491701212933","5710.0","16106.0","LAZONA DR & STAPLEY DR","Mesa","No","No","Standard","5724.0","Westbound","-111.80280259724199","33.4491701212933","128","","","","",27,"1",1437.4989,"","AggieReverseGeocoder","",4.01,"13632084D","1825 N STAPLEY DR","Mesa","AZ","85203","2628"
"27","-111.80511857211201","33.4477097090088","4798.0","16107.0","STAPLEY DR & JENSEN ST","Mesa","No","No","Standard","4812.0","Southbound","-111.80511857211201","33.4477097090088","128","","","","",28,"1",1640.6268,"","AggieReverseGeocoder","",4.01,"13625065","1761 N PARSELL CIR","Mesa","AZ","85203","3703"
"28","-111.80522083043002","33.4441285372074","4791.0","16108.0","STAPLEY DR & MCLELLAN RD","Mesa","No","No","Standard","4805.0","Southbound","-111.80522083043002","33.4441285372074","128","","","","",29,"1",1265.6632,"","AggieReverseGeocoder","",4.01,"13625557","1730 N STAPLEY DR","Mesa","AZ","85203","2603"
"29","-111.80529112036999","33.441089413751605","4797.0","16109.0","STAPLEY DR & HALIFAX ST","Mesa","No","No","Standard","4811.0","Southbound","-111.80529112036999","33.441089413751605","128","","","","",30,"1",1578.1284,"","AggieReverseGeocoder","",4.01,"13626513","1165 E HALIFAX ST","Mesa","AZ","85203","3724"
"30","-111.805417338394","33.4366314830577","4795.0","16110.0","STAPLEY DR & BROWN RD","Mesa","No","No","Standard","4809.0","Southbound","-111.805417338394","33.4366314830577","128","","","","",31,"1",1390.6281,"","AggieReverseGeocoder","",4.01,"13703009H","1215 E BROWN RD","Mesa","AZ","85203","5046"
"31","-111.805411958697","33.433809893361","4796.0","16111.0","STAPLEY DR & FAIRFIELD ST","Mesa","No","No","Standard","4810.0","Southbound","-111.805411958697","33.433809893361","128","","","","",32,"1",1625.0327,"","AggieReverseGeocoder","",4.01,"13709132","1010 N STAPLEY DR","Mesa","AZ","85203","4900"
"32","-111.805406249358","33.4300153093271","4794.0","16112.0","STAPLEY DR & 8TH PL","Mesa","No","No","Standard","4808.0","Southbound","-111.805406249358","33.4300153093271","128","","","","",33,"1",1265.6283,"","AggieReverseGeocoder","",4.01,"13730094E","1160 E 8TH ST","Mesa","AZ","85203","6418"
"33","-111.805417707419","33.4254549755571","4793.0","16113.0","STAPLEY DR & 6TH ST","Mesa","No","No","Standard","4807.0","Southbound","-111.805417707419","33.4254549755571","128","","","","",34,"1",499.997,"","AggieReverseGeocoder","",4.01,"13705033B","546 N STAPLEY DR","Mesa","AZ","85203","7204"
"34","-111.805414606689","33.422136200592","4799.0","16114.0","STAPLEY DR & UNIVERSITY DR","Mesa","No","Yes","Standard","4813.0","Southbound","-111.805414606689","33.422136200592","128","","","","",35,"1",1000.0022,"","AggieReverseGeocoder","",4.01,"13807107C","357 N STAPLEY DR","Mesa","AZ","85203","8030"
"35","-111.80542148907","33.4186340916769","4792.0","16889.0","STAPLEY DR & 2ND ST","Mesa","No","No","Standard","4806.0","Southbound","-111.80542148907","33.4186340916769","128","","","","",36,"1",1249.9978,"","AggieReverseGeocoder","",4.01,"13819153C","150 N STAPLEY DR","Mesa","AZ","85203","8862"
"36","-111.805436900532","33.414757262734604","5303.0","16116.0","STAPLEY DR & MAIN ST","Mesa","No","No","Standard","5317.0","Southbound","-111.805436900532","33.414757262734604","128","","","","",37,"1",1078.1279,"","AggieReverseGeocoder","",4.01,"13809046L","1205 E MAIN ST","Mesa","AZ","85203","8905"
"37","-111.80541216339701","33.4108651078293","5296.0","16117.0","STAPLEY DR & JARVIS AVE","Mesa","No","No","Standard","5310.0","Southbound","-111.80541216339701","33.4108651078293","128","","","","",38,"1",968.7516,"","AggieReverseGeocoder","",4.01,"13815021C","1164 E NIELSON AVE","Mesa","AZ","85204","2123"
"38","-111.805462187148","33.4075185072117","5299.0","16118.0","STAPLEY DR & BROADWAY RD","Mesa","No","Yes","Standard","5313.0","Southbound","-111.805462187148","33.4075185072117","128","","","","",39,"1",968.7553,"","AggieReverseGeocoder","",4.01,"13921048E","414 S STAPLEY DR","Mesa","AZ","85204","2613"
"39","-111.80548580051001","33.4038907114484","5297.0","16119.0","STAPLEY DR & 6TH AVE","Mesa","No","No","Standard","5311.0","Southbound","-111.80548580051001","33.4038907114484","128","","","","",40,"1",359.3781,"","AggieReverseGeocoder","",4.01,"13920001K","610 S STAPLEY DR","Mesa","AZ","85204","3407"
"40","-111.805498007983","33.4003055379151","5298.0","16120.0","STAPLEY DR & 8TH AVE","Mesa","No","No","Standard","5312.0","Southbound","-111.805498007983","33.4003055379151","128","","","","",41,"1",1031.2539,"","AggieReverseGeocoder","",4.01,"13918156D","810 S STAPLEY DR","Mesa","AZ","85204","4243"
"41","-111.805583336522","33.3960442921053","5300.0","16121.0","STAPLEY DR & EMERALD AVE","Mesa","No","No","Standard","5314.0","Southbound","-111.805583336522","33.3960442921053","128","","","","",42,"1",1046.871,"","AggieReverseGeocoder","",4.01,"13915061","1012 S STAPLEY DR","Mesa","AZ","85204","4270"
"42","-111.805594149011","33.3930144477176","5304.0","16122.0","STAPLEY DR & SOUTHERN AVE","Mesa","No","No","Standard","5318.0","Southbound","-111.805594149011","33.3930144477176","128","","","","",43,"1",1078.1254,"","AggieReverseGeocoder","",4.01,"13914304A","1159 E SOUTHERN AVE","Mesa","AZ","85204","5011"
"43","-111.80570783833599","33.3887780967489","5301.0","16123.0","STAPLEY DR & HARMONY AVE","Mesa","No","No","Standard","5315.0","Southbound","-111.80570783833599","33.3887780967489","128","","","","",44,"1",890.6357,"","AggieReverseGeocoder","",4.01,"13914001C","1464 S STAPLEY DR","Mesa","AZ","85204","5853"
"44","-111.807044350975","33.3826457715732","8101.0","16084.0","INVERNESS AVE & STAPLEY DR","Mesa","No","No","Standard","9876.0","Westbound","-111.807044350975","33.3826457715732","128","","","","",45,"1",484.3797,"","AggieReverseGeocoder","",4.01,"13911093","1664 S STAPLEY DR","Mesa","AZ","85204","6661"
"45","-111.80703538828399","33.3794225228431","9467.0","16544.0","STAPLEY DR & BASELINE RD","Mesa","No","Yes","Standard","9877.0","Northbound","-111.80703538828399","33.3794225228431","128","","","","",46,"1",406.2457,"","AggieReverseGeocoder","",4.01,"13911001F","1945 S STAPLEY DR","Mesa","AZ","85204","6615"
"46","-111.80563223312099","33.3826654306703","3103.0","16086.0","STAPLEY DR & INVERNESS AVE","Mesa","No","Yes","Standard","3117.0","Northbound","-111.80563223312099","33.3826654306703","128","","","","",47,"1",999.9989,"","AggieReverseGeocoder","",4.01,"13910011","1705 S STAPLEY DR","Mesa","AZ","85204","6611"
"47","-111.805343110646","33.3895314608751","3558.0","16087.0","STAPLEY DR & HILTON AVE","Mesa","No","Yes","Standard","3572.0","Northbound","-111.805343110646","33.3895314608751","128","","","","",48,"1",906.2501,"","AggieReverseGeocoder","",4.01,"13907401","1209 E HARMONY CIR","Mesa","AZ","85204","5963"
"48","-111.805299471252","33.3937681678118","3560.0","16088.0","STAPLEY DR & SOUTHERN AVE","Mesa","No","Yes","Standard","3574.0","Northbound","-111.805299471252","33.3937681678118","128","","","","",49,"1",1187.5037,"","AggieReverseGeocoder","",4.01,"13905004H","1210 E SOUTHERN AVE","Mesa","AZ","85204","5144"
"50","-111.787822349501","33.4336347362607","2888.0","16209.0","GILBERT RD & ENCANTO ST","Mesa","No","No","Standard","2902.0","Northbound","-111.787822349501","33.4336347362607","136","","","","",50,"1",1328.1242,"","AggieReverseGeocoder","",4.01,"14008072","2008 E ENCANTO ST","Mesa","AZ","85213","5912"
"51","-111.78793510088998","33.427296394917995","2886.0","16207.0","GILBERT RD & DECATUR ST","Mesa","No","No","Standard","2900.0","Northbound","-111.78793510088998","33.427296394917995","136","","","","",51,"1",1359.3705,"","AggieReverseGeocoder","",4.01,"14009406B","633 N GILBERT RD","Mesa","AZ","85203","6629"
"53","-111.805168011162","33.415472988772","3105.0","16094.0","STAPLEY DR & MAIN ST","Mesa","No","No","Standard","3119.0","Northbound","-111.805168011162","33.415472988772","128","","","","",52,"1",374.9987,"","AggieReverseGeocoder","",4.01,"13808076B","1210 E MAIN ST","Mesa","AZ","85203","8906"
"54","-111.78811149130199","33.4084077948636","3361.0","16201.0","GILBERT RD & BROADWAY RD","Mesa","No","Yes","Standard","3375.0","Northbound","-111.78811149130199","33.4084077948636","136","","","","",53,"1",1421.8756,"","AggieReverseGeocoder","",4.01,"14025473","363 S GILBERT RD","Mesa","AZ","85204","2454"
"55","-111.788148795305","33.4297727157978","4596.0","16261.0","GILBERT RD & 8TH ST","Mesa","No","No","Standard","4610.0","Southbound","-111.788148795305","33.4297727157978","136","","","","",54,"1",1250.0018,"","AggieReverseGeocoder","",4.01,"13702021","1961 E 8TH ST","Mesa","AZ","85203","6609"
"56","-111.68372347603001","33.4669116841607","9370.0","16469.0","N POWER RD & E MCDOWELL RD","Mesa","No","No","Standard","12018.0","Northbound","-111.68372347603001","33.4669116841607","184","","","","",55,"1",406.2271,"","AggieReverseGeocoder","",4.01,"21919739","2807 N POWER RD","Scottsdale","AZ","85215","1728"
"58","-111.684106510612","33.437959002685105","3027.0","16741.0","POWER RD & BROWN RD","Mesa","No","No","Standard","3041.0","Northbound","-111.684106510612","33.437959002685105","184","","","","",56,"1",1234.3552,"","AggieReverseGeocoder","",4.01,"21804086A","1229 N POWER RD","Mesa","AZ","85205","4901"
"59","-111.789450319354","33.459561816858894","9146.0","18270.0","N GILBERT RD & E HERMOSA VISTA","Mesa","No","No","Standard","11646.0","Northbound","-111.789450319354","33.459561816858894","136","","","","",57,"1",1000.0044,"","AggieReverseGeocoder","",4.01,"13604022","2407 N KACHINA","Mesa","AZ","85203","1339"
"70","-111.684600081481","33.426493029488","8886.0","16749.0","Power Rd & Decatur St","Mesa","No","No","Standard","11295.0","Southbound","-111.684600081481","33.426493029488","184","","","","",58,"1",1312.498,"","AggieReverseGeocoder","",4.01,"14162001A","548 N POWER RD","Mesa","AZ","85205","7612"
"71","-111.68418339287201","33.4327292518043","3025.0","16740.0","POWER RD & ENSENADA ST","Mesa","No","No","Standard","3039.0","Northbound","-111.68418339287201","33.4327292518043","184","","","","",59,"1",421.8939,"","AggieReverseGeocoder","",4.01,"21810002F","1001 N POWER RD","Mesa","AZ","85205","5701"
"72","-111.684543187154","33.4320251305447","8887.0","16748.0","Power RD & Ensenada St","Mesa","No","No","Standard","11296.0","Southbound","-111.684543187154","33.4320251305447","184","","","","",60,"1",1374.9983,"","AggieReverseGeocoder","",4.01,"14186578","6755 E ENSENADA ST","Mesa","AZ","85205","6054"
"74","-111.788385764512","33.4221460236508","4610.0","16264.0","GILBERT RD & UNIVERSITY DR","Mesa","No","Yes","Standard","4624.0","Southbound","-111.788385764512","33.4221460236508","136","","","","",61,"1",1375.0012,"","AggieReverseGeocoder","",4.01,"13868001T","1961 E UNIVERSITY DR","Mesa","AZ","85203","8233"
"75","-111.788477086019","33.396985368599","5093.0","16271.0","GILBERT RD & EMERALD AVE","Mesa","No","No","Standard","5107.0","Southbound","-111.788477086019","33.396985368599","136","","","","",62,"1",1312.5024,"","AggieReverseGeocoder","",4.01,"13906231","1011 S KACHINA","Mesa","AZ","85204","5207"
"76","-111.78853946584299","33.4074493622242","5091.0","16268.0","GILBERT RD & BROADWAY RD","Mesa","No","Yes","Standard","5105.0","Southbound","-111.78853946584299","33.4074493622242","136","","","","",63,"1",1359.4006,"","AggieReverseGeocoder","",4.01,"13901049F","424 S GILBERT RD","Mesa","AZ","85204","2805"
"80","-111.68454624822901","33.3943466946745","3481.0","12584.0","POWER RD & SOUTHERN AVE","Mesa","No","Yes","Standard","3495.0","Northbound","-111.68454624822901","33.3943466946745","40 | 45 | 184","","","","",64,"1",1015.6288,"","AggieReverseGeocoder","",4.01,"21868011A","6902 E SOUTHERN AVE","Mesa","AZ","85209","2644"
"81","-111.804937447745","33.4445289868643","3106.0","16102.0","STAPLEY DR & MCLELLAN RD","Mesa","No","No","Standard","3120.0","Northbound","-111.804937447745","33.4445289868643","128","","","","",65,"1",1375.0028,"","AggieReverseGeocoder","",4.01,"13627409","1614 N ALLEN","Mesa","AZ","85203","3302"
"82","-111.68433698280899","33.4165026497028","3031.0","12129.0","POWER RD & MAIN ST","Mesa","No","Yes","Standard","3045.0","Northbound","-111.68433698280899","33.4165026497028","30 | 184","","","","",66,"1",1250.0009,"","AggieReverseGeocoder","",4.01,"21812013","6810 E MAIN ST","Mesa","AZ","85207","8208"
"83","-111.686953402342","33.336584037405","8878.0","16735.0","Power Rd & Warner Rd","Mesa","No","No","Standard","11292.0","Northbound","-111.686953402342","33.336584037405","184","","","","",67,"1",140.627,"","AggieReverseGeocoder","",4.01,"30417033","4353 S POWER RD","Mesa","AZ","85212","3620"
"84","-111.78815964052","33.3902031836348","3363.0","16197.0","GILBERT RD & HAMPTON AVE","Mesa","No","No","Standard","3377.0","Northbound","-111.78815964052","33.3902031836348","136","","","","",68,"1",1421.8735,"","AggieReverseGeocoder","",4.01,"14061157C","1365 S GILBERT RD","Mesa","AZ","85204","6003"
"85","-111.788016763339","33.4196298010275","2898.0","16205.0","MAIN ST & UNIVERSITY DR","Mesa","No","No","Standard","2912.0","Northbound","-111.788016763339","33.4196298010275","136","","","","",69,"1",1390.6297,"","AggieReverseGeocoder","",4.01,"14025517","225 N GILBERT RD","Mesa","AZ","85203","8263"
"87","-111.787853857865","33.4510782029525","4608.0","16239.0","GILBERT RD & MCKELLIPS RD","Mesa","No","No","Standard","4622.0","Southbound","-111.787853857865","33.4510782029525","136","","","","",70,"1",406.2534,"","AggieReverseGeocoder","",4.01,"13627066A","1950 N GILBERT RD","Mesa","AZ","85203","2807"
"88","-111.684502274219","33.3994052165531","3474.0","12585.0","POWER RD & VIA ROSSMOOR BLVD","Mesa","No","Yes","Standard","3488.0","Northbound","-111.684502274219","33.3994052165531","40 | 45 | 184","","","","",71,"1",1234.3476,"","AggieReverseGeocoder","",4.01,"21868009","801 S POWER RD","Mesa","AZ","85206","5207"
"90","-111.684761505562","33.408116200592104","5216.0","12577.0","POWER RD & BROADWAY RD","Mesa","No","Yes","Standard","5230.0","Southbound","-111.684761505562","33.408116200592104","40 | 45 | 184","","","","",72,"1",343.7508,"","AggieReverseGeocoder","",4.01,"14155005E","400 S POWER RD","Mesa","AZ","85206","5203"
"91","-111.80514909373801","33.4339463447256","3098.0","16099.0","STAPLEY DR & FAIRFIELD ST","Mesa","No","No","Standard","3112.0","Northbound","-111.80514909373801","33.4339463447256","128","","","","",73,"1",1250.0051,"","AggieReverseGeocoder","",4.01,"13709132","1010 N STAPLEY DR","Mesa","AZ","85203","4900"
"93","-111.78808082301902","33.433604482744606","4602.0","16260.0","GILBERT RD & FAIRFIELD ST","Mesa","No","No","Standard","4616.0","Southbound","-111.78808082301902","33.433604482744606","136","","","","",74,"1",1406.2486,"","AggieReverseGeocoder","",4.01,"13702005B","962 N GILBERT RD","Mesa","AZ","85203","5806"
"95","-111.787910769799","33.4234034739444","2895.0","16206.0","GILBERT RD & UNIVERSITY DR","Mesa","No","Yes","Standard","2909.0","Northbound","-111.787910769799","33.4234034739444","136","","","","",75,"1",1390.6209,"","AggieReverseGeocoder","",4.01,"13701227","1900 E UNIVERSITY DR","Mesa","AZ","85203","8242"
"96","-111.68431882742901","33.447784775292895","4722.0","16746.0","POWER RD & INGLEWOOD ST","Mesa","No","Yes","Standard","4736.0","Southbound","-111.68431882742901","33.447784775292895","184","","","","",76,"1",1171.8789,"","AggieReverseGeocoder","",4.01,"14165817","1739 N SILVERADO","Mesa","AZ","85205","3790"
"98","-111.68424138801399","33.4235421539109","3032.0","16738.0","POWER RD & UNIVERSITY DR","Mesa","No","Yes","Standard","3046.0","Northbound","-111.68424138801399","33.4235421539109","184","","","","",77,"1",1296.8531,"","AggieReverseGeocoder","",4.01,"14162012C","6758 E UNIVERSITY DR","Mesa","AZ","85205","7608"
"99","-111.684944639899","33.3935519559004","5220.0","12579.0","POWER RD & SOUTHERN AVE","Mesa","No","No","Standard","5234.0","Southbound","-111.684944639899","33.3935519559004","40 | 45 | 61 | 184","","","","",78,"1",437.4659,"","AggieReverseGeocoder","",4.01,"14154012R","1210 S POWER RD","Mesa","AZ","85206","3702"
"101","-111.80514718847701","33.4299813204818","3100.0","16098.0","STAPLEY DR & 8TH ST","Mesa","No","No","Standard","3114.0","Northbound","-111.80514718847701","33.4299813204818","128","","","","",79,"1",1343.7523,"","AggieReverseGeocoder","",4.01,"13703012B","807 N STAPLEY DR","Mesa","AZ","85203","5601"
"102","-111.78741560450199","33.456250818489195","9145.0","18233.0","N GILBERT RD & E LOCKWOOD ST","Mesa","No","No","Standard","11645.0","Northbound","-111.78741560450199","33.456250818489195","136","","","","",80,"1",937.4793,"","AggieReverseGeocoder","",4.01,"14107098A","2224 N ASHBROOK CIR","Mesa","AZ","85213","2276"
"103","-111.78788263767099","33.4304123897902","2885.0","16208.0","GILBERT RD & ADOBE ST","Mesa","No","No","Standard","2899.0","Northbound","-111.78788263767099","33.4304123897902","136","","","","",81,"1",1375.0237,"","AggieReverseGeocoder","",4.01,"14008407A","815 N GILBERT RD","Mesa","AZ","85203","5805"
"104","-111.788533789377","33.3928630228436","5097.0","16272.0","GILBERT RD & SOUTHERN AVE","Mesa","No","Yes","Standard","5111.0","Southbound","-111.788533789377","33.3928630228436","136","","","","",82,"1",1374.8706,"","AggieReverseGeocoder","",4.01,"13908282A","1945 E SOUTHERN AVE","Mesa","AZ","85204","5215"
"105","-111.683338966532","33.4709359974428","9090.0","18250.0","POWER RD PARK AND RIDE","Mesa","Yes","Yes","Standard","11460.0","Other","-111.683338966532","33.4709359974428","184 | 535","","","","",83,"1",1046.9016,"","AggieReverseGeocoder","",4.01,"14193503","3033 N SILVERADO","Scottsdale","AZ","85215","1041"
"109","-111.788090741445","33.3942479785644","3368.0","16198.0","GILBERT RD & SOUTHERN AVE","Mesa","No","Yes","Standard","3382.0","Northbound","-111.788090741445","33.3942479785644","136","","","","",84,"1",1359.3527,"","AggieReverseGeocoder","",4.01,"14043001K","2025 E SOUTHERN AVE","Mesa","AZ","85204","5302"
"111","-111.685008457925","33.390853600366604","5222.0","12580.0","POWER RD & HAMPTON AVE","Mesa","No","No","Standard","5236.0","Southbound","-111.685008457925","33.390853600366604","40 | 45 | 61 | 184","","","","",85,"1",406.2449,"","AggieReverseGeocoder","",4.01,"14154037C","1350 S POWER RD","Mesa","AZ","85206","3704"
"113","-111.788252797148","33.4264384387506","4600.0","16262.0","GILBERT RD & DECATUR ST","Mesa","No","No","Standard","4614.0","Southbound","-111.788252797148","33.4264384387506","136","","","","",86,"1",1375.005,"","AggieReverseGeocoder","",4.01,"13701111A","1959 E DECATUR ST","Mesa","AZ","85203","6644"
"114","-111.68466540919901","33.4185909706987","4719.0","16751.0","POWER RD & ALBANY ST","Mesa","No","Yes","Standard","4733.0","Southbound","-111.68466540919901","33.4185909706987","184","","","","",87,"1",1249.9992,"","AggieReverseGeocoder","",4.01,"14158188","152 N POWER RD","Mesa","AZ","85205","8436"
"115","-111.827461970062","33.4295319021242","9587.0","16497.0","8TH ST- FITCH PARK","Mesa","No","Yes","Standard","","Eastbound","-111.827461970062","33.4295319021242","120 | BUZZ","","","","",88,"1",359.3694,"","AggieReverseGeocoder","",4.01,"13718001","161 E 6TH ST","Globe","AZ","85201","5008"
"116","-111.798532895951","33.4513500164297","9588.0","16867.0","BARKLEY & MCKELLIPS","Mesa","No","No","Standard","","Southbound","-111.798532895951","33.4513500164297","128","","","","",89,"1",1468.7535,"","AggieReverseGeocoder","",4.01,"13632176","1960 N BARKLEY","Mesa","AZ","85203","2703"
"117","-111.684356990038","33.4443673290144","9590.0","16920.0","POWER RD & MCLELLAN RD","Mesa","No","No","Standard","","Southbound","-111.684356990038","33.4443673290144","184","","","","",90,"1",1359.3349,"","AggieReverseGeocoder","",4.01,"14164069","1548 N POWER RD","Mesa","AZ","85205","4604"
"118","-111.68400917717501","33.4441396253463","9591.0","16912.0","POWER RD & MCLELLAN RD","Mesa","No","No","Standard","","Northbound","-111.68400917717501","33.4441396253463","184","","","","",91,"1",390.6261,"","AggieReverseGeocoder","",4.01,"21804001","1525 N POWER RD","Mesa","AZ","85205","4603"
"120","-111.805142951473","33.4372927954465","3101.0","16100.0","STAPLEY DR & BROWN RD","Mesa","No","No","Standard","3115.0","Northbound","-111.805142951473","33.4372927954465","128","","","","",92,"1",1406.2506,"","AggieReverseGeocoder","",4.01,"13631194","1201 E GREENWAY CIR","Mesa","AZ","85203","4426"
"121","-111.78792912618799","33.439892054782","4603.0","16241.0","GILBERT RD & GRANDVIEW ST","Mesa","No","No","Standard","4617.0","Southbound","-111.78792912618799","33.439892054782","136","","","","",93,"1",1203.1289,"","AggieReverseGeocoder","",4.01,"13627176","1955 E GRANDVIEW ST","Mesa","AZ","85203","4528"
"123","-111.684489115066","33.43674964071","4721.0","16747.0","POWER RD & BROWN RD","Mesa","No","Yes","Standard","4735.0","Southbound","-111.684489115066","33.43674964071","184","","","","",94,"1",1125.0045,"","AggieReverseGeocoder","",4.01,"14186699F","1152 N POWER RD","Mesa","AZ","85205","4910"
"124","-111.78788559937401","33.4440932291909","4609.0","16240.0","GILBERT RD & MCLELLAN RD","Mesa","No","No","Standard","4623.0","Southbound","-111.78788559937401","33.4440932291909","136","","","","",95,"1",828.1326,"","AggieReverseGeocoder","",4.01,"13627757","1944 E HALE ST","Mesa","AZ","85203","3918"
"125","-111.684834616751","33.3986279493442","5218.0","12578.0","POWER RD & VIA ROSSMOOR BLVD","Mesa","No","Yes","Standard","5232.0","Southbound","-111.684834616751","33.3986279493442","40 | 45 | 184","","","","",96,"1",1078.1272,"","AggieReverseGeocoder","",4.01,"14155099A","33 LEISURE WORLD","Mesa","AZ","85206","3103"
"126","-111.787644479999","33.4442843016488","9143.0","18232.0","N GILBERT RD & E HALE ST","Mesa","No","No","Standard","11643.0","Northbound","-111.787644479999","33.4442843016488","136","","","","",97,"1",921.8629,"","AggieReverseGeocoder","",4.01,"14111106","2012 E HALE ST","Mesa","AZ","85213","4009"
"127","-111.788463396407","33.4114489009891","5088.0","16890.0","GILBERT RD & 2ND AVE","Mesa","No","Yes","Standard","5102.0","Southbound","-111.788463396407","33.4114489009891","136","","","","",98,"1",1265.6358,"","AggieReverseGeocoder","",4.01,"13802058","1955 E 2ND AVE","Mesa","AZ","85204","1313"
"128","-111.80516694489201","33.4262055331939","3108.0","16097.0","STAPLEY DR & DOVER ST","Mesa","No","No","Standard","3122.0","Northbound","-111.80516694489201","33.4262055331939","128","","","","",99,"1",1312.4948,"","AggieReverseGeocoder","",4.01,"13734001","1209 E DOVER ST","Mesa","AZ","85203","6517"
"129","-111.683924255272","33.451995083914596","9504.0","16743.0","MCKELLIPS & POWER RD","Mesa","No","No","Standard","11435.0","Northbound","-111.683924255272","33.451995083914596","184","","","","",100,"1",1156.2518,"","AggieReverseGeocoder","",4.01,"21925686","2015 E MCKELLIPS RD","Mesa","AZ","85213","2900"
"133","-111.789420045879","33.4589647190624","4605.0","18160.0","GILBERT RD & HERMOSA VISTA DR","Mesa","No","No","Standard","11453.0","Southbound","-111.789420045879","33.4589647190624","136","","","","",101,"1",968.7759,"","AggieReverseGeocoder","",4.01,"13606100","1860 E LAUREL ST","Mesa","AZ","85203","2131"
"134","-111.80518552938","33.419069013287604","3099.0","16095.0","STAPLEY DR & 2ND ST","Mesa","No","Yes","Standard","3113.0","Northbound","-111.80518552938","33.419069013287604","128","","","","",102,"1",937.4632,"","AggieReverseGeocoder","",4.01,"13807014","1208 E 2ND ST","Mesa","AZ","85203","8926"
"135","-111.78817286986201","33.3840596010143","3371.0","16196.0","GILBERT RD & INVERNESS AVE","Mesa","No","No","Standard","3385.0","Northbound","-111.78817286986201","33.3840596010143","136","","","","",103,"1",1312.5152,"","AggieReverseGeocoder","",4.01,"14062005A","2005 E JUANITA AVE","Mesa","AZ","85204","6946"
"136","-111.684155245942","33.4659058316972","8634.0","16987.0","POWER RD & MCDOWELL RD","Mesa","No","No","Standard","10926.0","Southbound","-111.684155245942","33.4659058316972","184","","","","",104,"1",343.7408,"","AggieReverseGeocoder","",4.01,"14167005B","2754 N POWER RD","Scottsdale","AZ","85215","1641"
"137","-111.788502452358","33.4148395808063","5095.0","16266.0","GILBERT RD & MAIN ST","Mesa","No","Yes","Standard","5109.0","Southbound","-111.788502452358","33.4148395808063","136","","","","",105,"1",1281.2502,"","AggieReverseGeocoder","",4.01,"13803056D","1954 E MAIN ST","Mesa","AZ","85203","9048"
"138","-111.68437173958901","33.4510881180378","4723.0","16745.0","POWER RD & MCKELLIPS RD","Mesa","No","Yes","Standard","4737.0","Southbound","-111.68437173958901","33.4510881180378","184","","","","",106,"1",281.2567,"","AggieReverseGeocoder","",4.01,"14165008Y","1932 N POWER RD","Mesa","AZ","85205","3727"
"140","-111.684229865352","33.458698424116804","9140.0","18301.0","N POWER RD & E HERMOSA VISTA DR","Mesa","No","No","Standard","11658.0","Southbound","-111.684229865352","33.458698424116804","184","","","","",107,"1",1125.001,"","AggieReverseGeocoder","",4.01,"21925005E","2305 S POWER RD","Mesa","AZ","85209","6674"
"142","-111.80482014338101","33.4484544331615","3104.0","16103.0","STAPLEY DR & JENSEN ST","Mesa","No","Yes","Standard","3118.0","Northbound","-111.80482014338101","33.4484544331615","128","","","","",108,"1",1312.5041,"","AggieReverseGeocoder","",4.01,"13625446","1836 N STAPLEY DR","Mesa","AZ","85203","2670"
"144","-111.80384632071501","33.451337951518695","533.0","16104.0","MCKELLIPS RD & STAPLEY DR","Mesa","No","Yes","Standard","549.0","Eastbound","-111.80384632071501","33.451337951518695","128","","","","",109,"1",1328.1333,"","AggieReverseGeocoder","",4.01,"13632247","1229 E MCKELLIPS RD","Mesa","AZ","85203","2724"
"145","-111.80529969577299","33.3964931890655","3557.0","16089.0","STAPLEY DR & EMERALD AVE","Mesa","No","No","Standard","3571.0","Northbound","-111.80529969577299","33.3964931890655","128","","","","",110,"1",937.5001,"","AggieReverseGeocoder","",4.01,"13905353","1019 S STAPLEY DR","Mesa","AZ","85204","5013"
"146","-111.78744201516399","33.4522291714083","9144.0","18162.0","N GILBERT RD & E MCKELLIPS RD","Mesa","No","No","Standard","11644.0","Northbound","-111.78744201516399","33.4522291714083","136","","","","",111,"1",390.6219,"","AggieReverseGeocoder","",4.01,"14107001J","2020 E MCKELLIPS RD","Mesa","AZ","85213","2930"
"147","-111.78632747286801","33.46750544193","9089.0","18251.0","GILBERT MCDOWELL PARK AND RIDE","Mesa","Yes","Yes","Park and Ride","11457.0","Other","-111.78632747286801","33.46750544193","136 | 535","","","","",112,"1",859.3825,"","AggieReverseGeocoder","",4.01,"14103029A","2033 E OASIS ST","Mesa","AZ","85213","9727"
"148","-111.805260547403","33.4008439216858","3555.0","16090.0","STAPLEY DR & 8TH AVE","Mesa","No","No","Standard","3569.0","Northbound","-111.805260547403","33.4008439216858","128","","","","",113,"1",374.9944,"","AggieReverseGeocoder","",4.01,"13904013A","761 S STAPLEY DR","Mesa","AZ","85204","3408"
"149","-111.67733115575399","33.3096721718088","9433.0","18254.0","INNOVATION WAY N & S TWINING","Mesa","No","Yes","Standard","12041.0","Westbound","-111.67733115575399","33.3096721718088","184","","","","",114,"1",234.4101,"","AggieReverseGeocoder","",4.01,"30437004E","5835 S SOSSAMAN RD","Mesa","AZ","85212","6014"
"150","-111.66933406328","33.3080758056252","9503.0","18253.0","PHX-MESA GATEWAY AIRPORT","Mesa","No","Yes","Standard","11723.0","Other","-111.66933406328","33.3080758056252","184","","","","",115,"1",296.8403,"","AggieReverseGeocoder","",4.01,"30437004E","5835 S SOSSAMAN RD","Mesa","AZ","85212","6014"
"151","-111.78807415788602","33.4368168157559","4599.0","16234.0","GILBERT RD & BROWN RD","Mesa","No","Yes","Standard","4613.0","Southbound","-111.78807415788602","33.4368168157559","136","","","","",116,"1",1250.0007,"","AggieReverseGeocoder","",4.01,"13738064F","1933 E BROWN RD","Mesa","AZ","85203","5142"
"152","-111.684707850241","33.415196496991804","5217.0","12575.0","POWER RD & MAIN ST","Mesa","No","No","Standard","5231.0","Southbound","-111.684707850241","33.415196496991804","40 | 184","","","","",117,"1",390.6301,"","AggieReverseGeocoder","",4.01,"14158004A","6771 E MAIN ST","Mesa","AZ","85205","9037"
"153","-111.684176849295","33.462161482093805","9139.0","18300.0","N POWER RD & E MELROSE ST","Mesa","No","No","Standard","11657.0","Southbound","-111.684176849295","33.462161482093805","184","","","","",118,"1",1281.2506,"","AggieReverseGeocoder","",4.01,"14167470","2551 N SILVERADO","Scottsdale","AZ","85215","1668"
"156","-111.670917720655","33.3104076542497","8981.0","16759.0","SOSSAMAN & TAHOE AV","Mesa","No","Yes","Standard","11408.0","Southbound","-111.670917720655","33.3104076542497","184","","","","",119,"1",265.6269,"","AggieReverseGeocoder","",4.01,"30437004E","5835 S SOSSAMAN RD","Mesa","AZ","85212","6014"
"157","-111.68424368983","33.4271740536566","3028.0","16739.0","POWER RD & DECATUR ST","Mesa","No","Yes","Standard","3042.0","Northbound","-111.68424368983","33.4271740536566","184","","","","",120,"1",390.6229,"","AggieReverseGeocoder","",4.01,"21810007","6935 E DECATUR ST","Mesa","AZ","85207","5501"
"158","-111.80506673412201","33.4400425445464","3102.0","16101.0","STAPLEY DR & GRANDVIEW ST","Mesa","No","No","Standard","3116.0","Northbound","-111.80506673412201","33.4400425445464","128","","","","",121,"1",1375.0072,"","AggieReverseGeocoder","",4.01,"13631164","1328 N DIANE CIR","Mesa","AZ","85203","4429"
"161","-111.78849875130301","33.400484417368105","5090.0","16270.0","GILBERT RD & 8TH AVE","Mesa","No","Yes","Standard","5104.0","Southbound","-111.78849875130301","33.400484417368105","136","","","","",122,"1",1374.9697,"","AggieReverseGeocoder","",4.01,"13906080","1950 E EDGEWOOD CIR","Mesa","AZ","85204","4433"
"162","-111.788509906086","33.3895954003221","5094.0","16273.0","GILBERT RD & HAMPTON AVE","Mesa","No","No","Standard","5108.0","Southbound","-111.788509906086","33.3895954003221","136","","","","",123,"1",1281.2504,"","AggieReverseGeocoder","",4.01,"13908329","1927 E HAMPTON AVE","Mesa","AZ","85204","6058"
"163","-111.80505746253","33.4228180017271","3107.0","16096.0","STAPLEY DR & UNIVERSITY DR","Mesa","No","No","Standard","3121.0","Northbound","-111.80505746253","33.4228180017271","128","","","","",124,"1",1437.5583,"","AggieReverseGeocoder","",4.01,"13705030B","1160 E UNIVERSITY DR","Mesa","AZ","85203","8039"
"164","-111.788139418459","33.379593773756","3359.0","16195.0","GILBERT RD & BASELINE RD","Mesa","No","Yes","Standard","3373.0","Northbound","-111.788139418459","33.379593773756","136","","","","",125,"1",1531.2438,"","AggieReverseGeocoder","",4.01,"14062299A","2032 E BASELINE RD","Mesa","AZ","85204","6965"
"165","-111.788146391051","33.401188231066996","3365.0","16199.0","GILBERT RD & PUEBLO AVE","Mesa","No","Yes","Standard","3379.0","Northbound","-111.788146391051","33.401188231066996","136","","","","",126,"1",1234.3713,"","AggieReverseGeocoder","",4.01,"14042266","750 S ASHBROOK","Mesa","AZ","85204","3712"
"166","-111.683907120938","33.4494119127513","3030.0","16742.0","POWER RD & JENSEN ST","Mesa","No","No","Standard","3044.0","Northbound","-111.683907120938","33.4494119127513","184","","","","",127,"1",1421.8767,"","AggieReverseGeocoder","",4.01,"21801565F","1833 N POWER RD","Mesa","AZ","85205","3799"
"169","-111.675131282981","33.312651082430804","8894.0","16758.0","Sossaman & Avery","Mesa","No","No","Standard","11303.0","Southbound","-111.675131282981","33.312651082430804","184","","","","",128,"1",265.6202,"","AggieReverseGeocoder","",4.01,"30437004E","5835 S SOSSAMAN RD","Mesa","AZ","85212","6014"
"170","-111.787783507393","33.4557129469234","4607.0","18161.0","GILBERT RD & E LOCKWOOD ST","Mesa","No","No","Standard","11454.0","Southbound","-111.787783507393","33.4557129469234","136","","","","",129,"1",984.3722,"","AggieReverseGeocoder","",4.01,"13606053","1965 E LOCKWOOD ST","Mesa","AZ","85203","2107"
"172","-111.684500350427","33.3911238448355","3479.0","12583.0","POWER RD & HAMPTON AVE","Mesa","No","Yes","Standard","3493.0","Northbound","-111.684500350427","33.3911238448355","40 | 45 | 61 | 184","","","","",130,"1",406.2546,"","AggieReverseGeocoder","",4.01,"21856701","1357 S POWER RD","Mesa","AZ","85206","3703"
"174","-111.78849895471501","33.404204657933505","5089.0","16269.0","GILBERT RD & 6TH AVE","Mesa","No","No","Standard","5103.0","Southbound","-111.78849895471501","33.404204657933505","136","","","","",131,"1",1468.7564,"","AggieReverseGeocoder","",4.01,"13955007","1955 E 6TH AVE","Mesa","AZ","85204","2809"
"175","-111.788380139735","33.4190244828542","4614.0","16265.0","UNIVERSITY DR & MAIN ST","Mesa","No","No","Standard","4628.0","Southbound","-111.788380139735","33.4190244828542","136","","","","",132,"1",1343.7576,"","AggieReverseGeocoder","",4.01,"13868250","214 N GILBERT RD","Mesa","AZ","85203","8243"
"176","-111.80519683014299","33.4082482110976","3556.0","16092.0","STAPLEY DR & BROADWAY RD","Mesa","No","Yes","Standard","3570.0","Northbound","-111.80519683014299","33.4082482110976","128","","","","",133,"1",984.3745,"","AggieReverseGeocoder","",4.01,"13814028A","1206 E BROADWAY RD","Mesa","AZ","85204","2214"
"177","-111.80519238571699","33.4105274079722","3559.0","16093.0","STAPLEY DR & JARVIS AVE","Mesa","No","No","Standard","3573.0","Northbound","-111.80519238571699","33.4105274079722","128","","","","",134,"1",515.6271,"","AggieReverseGeocoder","",4.01,"13814011J","231 S STAPLEY DR","Mesa","AZ","85204","2101"
"178","-111.78776142791","33.4376931274931","9141.0","18271.0","N GILBERT RD & E BROWN RD","Mesa","No","No","Standard","11641.0","Northbound","-111.78776142791","33.4376931274931","136","","","","",135,"1",1375.0047,"","AggieReverseGeocoder","",4.01,"14111002Z","2010 E BROWN RD","Mesa","AZ","85213","5222"
"179","-111.78805428835399","33.4158815333508","2893.0","16204.0","GILBERT RD & MAIN ST","Mesa","No","Yes","Standard","2907.0","Northbound","-111.78805428835399","33.4158815333508","136","","","","",136,"1",1421.8781,"","AggieReverseGeocoder","",4.01,"14024004F","2020 E MAIN ST","Mesa","AZ","85213","9105"
"180","-111.78773613372101","33.4395456266966","9142.0","18231.0","N GILBERT RD & E GARY ST","Mesa","No","No","Standard","11642.0","Northbound","-111.78773613372101","33.4395456266966","136","","","","",137,"1",1453.126,"","AggieReverseGeocoder","",4.01,"14111145","2012 E GARY CIR","Mesa","AZ","85213","4608"
"182","-111.78851568956999","33.3836161650427","5106.0","16274.0","GILBERT RD & INTREPID AVE","Mesa","No","Yes","Standard","5120.0","Southbound","-111.78851568956999","33.3836161650427","136","","","","",138,"1",1406.2754,"","AggieReverseGeocoder","",4.01,"13909214","1964 E INTREPID AVE","Mesa","AZ","85204","8017"
"184","-111.788107700875","33.4113479782192","3360.0","16202.0","GILBERT RD & BAYBERRY AVE","Mesa","No","No","Standard","3374.0","Northbound","-111.788107700875","33.4113479782192","136","","","","",139,"1",1218.7326,"","AggieReverseGeocoder","",4.01,"14025274","2008 E BAYBERRY AVE","Mesa","AZ","85204","1431"
"185","-111.68428721812599","33.4185462975917","3026.0","12130.0","POWER RD & ALBANY ST","Mesa","No","Yes","Standard","3040.0","Northbound","-111.68428721812599","33.4185462975917","30 | 184","","","","",140,"1",1234.3786,"","AggieReverseGeocoder","",4.01,"14158188","152 N POWER RD","Mesa","AZ","85205","8436"
"187","-111.80524399512","33.404452790558096","3554.0","16091.0","STAPLEY DR & 6TH AVE","Mesa","No","No","Standard","3568.0","Northbound","-111.80524399512","33.404452790558096","128","","","","",141,"1",1000.0006,"","AggieReverseGeocoder","",4.01,"13903153","1208 E 6TH AVE","Mesa","AZ","85204","2725"
"192","-111.683825295805","33.4626209809148","9138.0","16911.0","N POWER RD & E MELROSE ST","Mesa","No","No","Standard","11656.0","Northbound","-111.683825295805","33.4626209809148","184","","","","",142,"1",1265.654,"","AggieReverseGeocoder","",4.01,"21925172","6810 E MINTON ST","Mesa","AZ","85207","1098"
"241","-111.683847948151","33.4592052550813","9595.0","16909.0","POWER RD & HERMOSA VISTA","Mesa","No","No","Standard","","Northbound","-111.683847948151","33.4592052550813","184","","","","",143,"1",1140.6301,"","AggieReverseGeocoder","",4.01,"21925012A","6801 E MENLO ST","Mesa","AZ","85207","1033"
"332","-111.92653806941001","33.4579725466934","4752.0","14806.0","SCOTTSDALE RD & CONTINENTAL DR","Tempe","No","Yes","Standard","4766.0","Southbound","-111.92653806941001","33.4579725466934","72 | EART | MRT","","","","",144,"1",374.9734,"","AggieReverseGeocoder","",4.01,"12916015A","2700 N SCOTTSDALE RD","Mesa","AZ","85281","1071"
"333","-111.92558988346501","33.451063032795","532.0","14862.0","MCKELLIPS RD & SCOTTSDALE RD","Tempe","No","Yes","Standard","548.0","Eastbound","-111.92558988346501","33.451063032795","MRT | EART","","","","",145,"1",1687.5064,"","AggieReverseGeocoder","",4.01,"13205101A","1811 N SCOTTSDALE RD","Mesa","AZ","85281","1563"
"342","-111.870345341715","33.415729580607","8758.0","12078.0","SYCAMORE/MAIN ST TRANSIT CENTER","Mesa","Yes","Yes","Transit Center","11043.0","Other","-111.870345341715","33.415729580607","30 | 45","","","","",146,"1",1156.249,"","AggieReverseGeocoder","",4.01,"13565130","1763 W PEPPER PL","Globe","AZ","85201","6908"
"343","-111.840107736531","33.4145175009168","5067.0","15964.0","COUNTRY CLUB DR & MAIN ST","Mesa","No","Yes","Standard","5081.0","Southbound","-111.840107736531","33.4145175009168","112","","","","",147,"1",1250.0502,"","AggieReverseGeocoder","",4.01,"13401001","403 W MAIN ST","Globe","AZ","85201","6512"
"344","-111.840226320798","33.406028786662304","5064.0","15967.0","COUNTRY CLUB DR & BROADWAY FRONTAGE RD","Mesa","No","Yes","LINK","5078.0","Southbound","-111.840226320798","33.406028786662304","112","","","","",148,"1",734.3681,"","AggieReverseGeocoder","",4.01,"13409010","500 S COUNTRY CLUB DR","Apache Junction","AZ","85210","2390"
"345","-111.840237218211","33.4001398648762","5063.0","15968.0","COUNTRY CLUB DR & 8TH AVE","Mesa","No","Yes","Standard","5077.0","Southbound","-111.840237218211","33.4001398648762","112","","","","",149,"1",359.3742,"","AggieReverseGeocoder","",4.01,"13417017F","810 S COUNTRY CLUB DR","Apache Junction","AZ","85210","3538"
"346","-111.84024107340299","33.396601652841895","5065.0","15969.0","COUNTRY CLUB DR & EMERALD AVE","Mesa","No","Yes","Standard","5079.0","Southbound","-111.84024107340299","33.396601652841895","112","","","","",150,"1",781.2502,"","AggieReverseGeocoder","",4.01,"13944015B","1001 S COUNTRY CLUB DR","Apache Junction","AZ","85210","4613"
"347","-111.84029144908101","33.3926316133196","5068.0","15970.0","COUNTRY CLUB DR & SOUTHERN AVE","Mesa","No","Yes","LINK","5082.0","Southbound","-111.84029144908101","33.3926316133196","112","","","","",151,"1",687.4967,"","AggieReverseGeocoder","",4.01,"13422909","1250 S COUNTRY CLUB DR","Apache Junction","AZ","85210","5128"
"348","-111.840265214563","33.3886657972989","5061.0","15971.0","COUNTRY CLUB DR & HAMPTON AVE","Mesa","No","Yes","Standard","5075.0","Southbound","-111.840265214563","33.3886657972989","112","","","","",152,"1",750.0038,"","AggieReverseGeocoder","",4.01,"13422209G","1440 S COUNTRY CLUB DR","Apache Junction","AZ","85210","9701"
"349","-111.84032195961399","33.3818254842947","9505.0","18259.0","S COUNTRY CLUB & W JUANITA","Mesa","No","Yes","LINK","11789.0","Southbound","-111.84032195961399","33.3818254842947","112","","","","",153,"1",703.1248,"","AggieReverseGeocoder","",4.01,"13424010","1810 S COUNTRY CLUB DR","Apache Junction","AZ","85210","6012"
"350","-111.84238242119801","33.3817335083704","9088.0","18252.0","WEST MESA PARK AND RIDE","Mesa","Yes","Yes","Park and Ride","11471.0","Other","-111.84238242119801","33.3817335083704","531 | 541","","","","",154,"1",406.2552,"","AggieReverseGeocoder","",4.01,"13424013","1830 S COUNTRY CLUB DR","Apache Junction","AZ","85210","6012"
"351","-111.841742558438","33.37818375005","9375.0","18257.0","COUNTRY CLUB DR & BASELINE RD","Mesa","No","Yes","Standard","11894.0","Southbound","-111.841742558438","33.37818375005","112","","","","",155,"1",750.023,"","AggieReverseGeocoder","",4.01,"30208003","2020 S COUNTRY CLUB DR","Apache Junction","AZ","85210","6857"
"352","-111.842193611567","33.3680451478942","8066.0","15972.0","COUNTRY CLUB DR & MESETO AVE","Mesa","No","Yes","LINK","9852.0","Southbound","-111.842193611567","33.3680451478942","112","","","","",156,"1",781.2481,"","AggieReverseGeocoder","",4.01,"31002063","415 W MONTE CIR","Apache Junction","AZ","85210","7581"
"353","-111.842037024275","33.3637425219217","8067.0","15973.0","COUNTRY CLUB DR & GUADALUPE RD","Mesa","No","Yes","Standard","9853.0","Southbound","-111.842037024275","33.3637425219217","112","","","","",157,"1",1171.8752,"","AggieReverseGeocoder","",4.01,"30277001A","2828 S COUNTRY CLUB DR","Apache Junction","AZ","85210","8303"
"394","-111.839924658295","33.3826679066393","7821.0","15934.0","COUNTRY CLUB DR & JUANITA AVE","Mesa","No","Yes","LINK","9428.0","Northbound","-111.839924658295","33.3826679066393","112","","","","",158,"1",875.0146,"","AggieReverseGeocoder","",4.01,"13424007B","408 W JUANITA AVE","Apache Junction","AZ","85210","6010"
"395","-111.839917280702","33.390950701406496","3334.0","15935.0","COUNTRY CLUB DR & HAMPTON AVE","Mesa","No","Yes","Standard","3348.0","Northbound","-111.839917280702","33.390950701406496","112","","","","",159,"1",718.7513,"","AggieReverseGeocoder","",4.01,"13947021J","1331 S COUNTRY CLUB DR","Apache Junction","AZ","85210","5129"
"396","-111.839830630028","33.394041373056396","3335.0","16301.0","COUNTRY CLUB DR & SOUTHERN AVE","Mesa","No","Yes","LINK","3349.0","Northbound","-111.839830630028","33.394041373056396","112","","","","",160,"1",265.629,"","AggieReverseGeocoder","",4.01,"13944009A","1151 S COUNTRY CLUB DR","Apache Junction","AZ","85210","4615"
"397","-111.839908152148","33.3972843749159","3331.0","15937.0","COUNTRY CLUB DR & 10TH AVE","Mesa","No","Yes","Standard","3345.0","Northbound","-111.839908152148","33.3972843749159","112","","","","",161,"1",671.9006,"","AggieReverseGeocoder","",4.01,"13943005N","955 S COUNTRY CLUB DR","Apache Junction","AZ","85210","3539"
"398","-111.839919407842","33.401323168634704","3333.0","15938.0","COUNTRY CLUB DR & 8TH AVE","Mesa","No","Yes","Standard","3347.0","Northbound","-111.839919407842","33.401323168634704","112","","","","",162,"1",703.0863,"","AggieReverseGeocoder","",4.01,"13940002","741 S COUNTRY CLUB DR","Apache Junction","AZ","85210","2327"
"399","-111.839870363088","33.405299193290006","3336.0","15939.0","COUNTRY CLUB DR & 6TH DR","Mesa","No","Yes","LINK","3350.0","Northbound","-111.839870363088","33.405299193290006","112","","","","",163,"1",734.3834,"","AggieReverseGeocoder","",4.01,"13939002","529 S COUNTRY CLUB DR","Apache Junction","AZ","85210","2323"
"400","-111.839744384965","33.413406801701996","3332.0","15940.0","COUNTRY CLUB DR & 1ST AVE","Mesa","No","Yes","Standard","3346.0","Northbound","-111.839744384965","33.413406801701996","112","","","","",164,"1",1234.3741,"","AggieReverseGeocoder","",4.01,"13854003","55 S COUNTRY CLUB DR","Apache Junction","AZ","85210","1222"
"401","-111.839757561951","33.415628918188","2863.0","16480.0","COUNTRY CLUB DR & MAIN ST","Mesa","No","Yes","LINK","2877.0","Northbound","-111.839757561951","33.415628918188","112","","","","",165,"1",1187.5044,"","AggieReverseGeocoder","",4.01,"13855041A","310 W MAIN ST","Globe","AZ","85201","7314"
"402","-111.83981191905701","33.417942104671695","2857.0","15942.0","COUNTRY CLUB DR & 1ST ST","Mesa","No","Yes","Standard","2871.0","Northbound","-111.83981191905701","33.417942104671695","112","","","","",166,"1",1328.1251,"","AggieReverseGeocoder","",4.01,"13856047","131 N COUNTRY CLUB DR","Globe","AZ","85201","6521"
"403","-111.83976933840599","33.4228938446818","2865.0","15943.0","COUNTRY CLUB DR & UNIVERSITY DR","Mesa","No","Yes","Standard","2879.0","Northbound","-111.83976933840599","33.4228938446818","112","","","","",167,"1",1343.7555,"","AggieReverseGeocoder","",4.01,"13727075D","340 W UNIVERSITY DR","Globe","AZ","85201","5824"
"404","-111.839798035485","33.4263602698986","2858.0","15944.0","COUNTRY CLUB DR & 6TH ST","Mesa","No","Yes","Standard","2872.0","Northbound","-111.839798035485","33.4263602698986","112","","","","",168,"1",1171.8697,"","AggieReverseGeocoder","",4.01,"13524066","606 N COUNTRY CLUB DR","Globe","AZ","85201","5700"
"405","-111.83976154218901","33.430003758347","2859.0","15945.0","COUNTRY CLUB DR & 8TH ST","Mesa","No","Yes","Standard","2873.0","Northbound","-111.83976154218901","33.430003758347","112","","","","",169,"1",1171.8824,"","AggieReverseGeocoder","",4.01,"13723122","817 N COUNTRY CLUB DR","Globe","AZ","85201","4105"
"406","-111.839754582057","33.43269107169","2860.0","15946.0","COUNTRY CLUB DR & 9TH PL","Mesa","No","Yes","Standard","2874.0","Northbound","-111.839754582057","33.43269107169","112","","","","",170,"1",1187.5023,"","AggieReverseGeocoder","",4.01,"13516016B","924 N COUNTRY CLUB DR","Globe","AZ","85201","4108"
"407","-111.839728226398","33.4354500978543","2861.0","15947.0","COUNTRY CLUB DR & BROWN RD","Mesa","No","Yes","Standard","2875.0","Northbound","-111.839728226398","33.4354500978543","112","","","","",171,"1",1218.7512,"","AggieReverseGeocoder","",4.01,"13721014F","1205 N COUNTRY CLUB DR","Globe","AZ","85201","2543"
"408","-111.83970182824899","33.439671877341496","2856.0","15948.0","COUNTRY CLUB DR & 13TH PL","Mesa","No","Yes","Standard","2870.0","Northbound","-111.83970182824899","33.439671877341496","112","","","","",172,"1",1359.3796,"","AggieReverseGeocoder","",4.01,"13513001A","660 W FAIRWAY DR","Globe","AZ","85201","2507"
"409","-111.83964840916201","33.444399330805396","2864.0","15949.0","COUNTRY CLUB DR & MCLELLAN RD","Mesa","No","Yes","Standard","2878.0","Northbound","-111.83964840916201","33.444399330805396","112","","","","",173,"1",1250.0045,"","AggieReverseGeocoder","",4.01,"13618093","350 W MCLELLAN RD","Globe","AZ","85201","2262"
"410","-111.83962422786999","33.448542139917","2862.0","15950.0","COUNTRY CLUB DR & JUNIPER ST","Mesa","No","Yes","Standard","2876.0","Northbound","-111.83962422786999","33.448542139917","112","","","","",174,"1",1265.6363,"","AggieReverseGeocoder","",4.01,"13628334A","1903 N COUNTRY CLUB DR","Globe","AZ","85201","1733"
"411","-111.839269329284","33.4512982564548","1517.0","15951.0","MCKELLIPS RD & COUNTRY CLUB DR","Mesa","No","Yes","Standard","1533.0","Eastbound","-111.839269329284","33.4512982564548","112","","","","",175,"1",1218.736,"","AggieReverseGeocoder","",4.01,"13628300E","1957 N COUNTRY CLUB DR","Globe","AZ","85201","1703"
"412","-111.831283748105","33.450919857406895","4501.0","15952.0","CENTER ST & MCKELLIPS RD","Mesa","No","Yes","Standard","4515.0","Southbound","-111.831283748105","33.450919857406895","112","","","","",176,"1",1281.2516,"","AggieReverseGeocoder","",4.01,"13602076G","25 W MCKELLIPS RD","Globe","AZ","85201","1507"
"413","-111.83127949450301","33.4469619379775","4500.0","15954.0","CENTER ST & INGLEWOOD ST","Mesa","No","Yes","Standard","4514.0","Southbound","-111.83127949450301","33.4469619379775","112","","","","",177,"1",1265.6343,"","AggieReverseGeocoder","",4.01,"13618094","11 W INGLEWOOD ST","Globe","AZ","85201","2244"
"414","-111.835156175436","33.444253761438496","6835.0","15955.0","MCLELLAN RD & GRAND","Mesa","No","Yes","Standard","6849.0","Westbound","-111.835156175436","33.444253761438496","112","","","","",178,"1",1312.4964,"","AggieReverseGeocoder","",4.01,"13618194","153 W INDIGO ST","Globe","AZ","85201","2259"
"415","-111.839986092819","33.4438621452756","4568.0","15956.0","COUNTRY CLUB DR & MCLELLAN RD","Mesa","No","Yes","Standard","4582.0","Southbound","-111.839986092819","33.4438621452756","112","","","","",179,"1",343.8299,"","AggieReverseGeocoder","",4.01,"13512072G","1550 N COUNTRY CLUB DR","Globe","AZ","85201","2592"
"416","-111.84002992895901","33.4397214965583","4567.0","15957.0","COUNTRY CLUB DR & FAIRWAY DR","Mesa","No","Yes","Standard","4581.0","Southbound","-111.84002992895901","33.4397214965583","112","","","","",180,"1",374.9551,"","AggieReverseGeocoder","",4.01,"13513001A","660 W FAIRWAY DR","Globe","AZ","85201","2507"
"417","-111.84009978908999","33.434739679763396","4566.0","15958.0","COUNTRY CLUB DR & BROWN RD","Mesa","No","Yes","Standard","4580.0","Southbound","-111.84009978908999","33.434739679763396","112","","","","",181,"1",343.7503,"","AggieReverseGeocoder","",4.01,"13515001H","420 W 10TH ST","Globe","AZ","85201","4104"
"418","-111.84009661120001","33.4322254115756","4570.0","15959.0","COUNTRY CLUB DR & 9TH ST","Mesa","No","Yes","Standard","4584.0","Southbound","-111.84009661120001","33.4322254115756","112","","","","",182,"1",1484.3837,"","AggieReverseGeocoder","",4.01,"13516027A","924 N COUNTRY CLUB DR","Globe","AZ","85201","4108"
"419","-111.840132190749","33.4294564582042","4565.0","15960.0","COUNTRY CLUB DR & 8TH ST","Mesa","No","Yes","Standard","4579.0","Southbound","-111.840132190749","33.4294564582042","112","","","","",183,"1",265.6268,"","AggieReverseGeocoder","",4.01,"13524042","760 N COUNTRY CLUB DR","Globe","AZ","85201","4911"
"420","-111.84015626281901","33.426633218355896","4564.0","15961.0","COUNTRY CLUB DR & 6TH PL","Mesa","No","Yes","Standard","4578.0","Southbound","-111.84015626281901","33.426633218355896","112","","","","",184,"1",265.6273,"","AggieReverseGeocoder","",4.01,"13524059","606 N COUNTRY CLUB DR","Globe","AZ","85201","5700"
"421","-111.84017793454201","33.4218253507632","4569.0","15962.0","COUNTRY CLUB DR & UNIVERSITY DR","Mesa","No","Yes","Standard","4583.0","Southbound","-111.84017793454201","33.4218253507632","112","","","","",185,"1",1296.8601,"","AggieReverseGeocoder","",4.01,"13559001B","354 N COUNTRY CLUB DR","Globe","AZ","85201","6589"
"422","-111.840158156155","33.4170268532643","4563.0","15963.0","COUNTRY CLUB DR & 1ST ST","Mesa","No","Yes","Standard","4577.0","Southbound","-111.840158156155","33.4170268532643","112","","","","",186,"1",281.2565,"","AggieReverseGeocoder","",4.01,"13560021","70 N COUNTRY CLUB DR","Globe","AZ","85201","6528"
"423","-111.82291368918001","33.4289474298428","4684.0","16015.0","MESA DR & 8TH ST","Mesa","No","Yes","Standard","4698.0","Southbound","-111.82291368918001","33.4289474298428","120","","","","",187,"1",312.4954,"","AggieReverseGeocoder","",4.01,"13716005G","730 N MESA DR","Globe","AZ","85201","5105"
"424","-111.862763856756","33.436379465341304","8936.0","10553.0","MESA RIVERVIEW","Mesa","No","Yes","Standard","11365.0","Other","-111.862763856756","33.436379465341304","104","","","","",188,"1",890.6323,"","AggieReverseGeocoder","",4.01,"13533569","1422 W BASS PRO DR","Globe","AZ","85201","3806"
"425","-111.85636000011002","33.436221661798896","9275.0","18403.0","N ALMA SCHOOL & BASS PRO DR","Mesa","No","Yes","Standard","11924.0","Southbound","-111.85636000011002","33.436221661798896","104","","","","",189,"1",687.5007,"","AggieReverseGeocoder","",4.01,"13533570A","1146 N ALMA SCHOOL RD","Globe","AZ","85201","3000"
"426","-111.856383977516","33.4334241885582","9442.0","18404.0","N ALMA SCHOOL RD & W MOUNTAIN VIEW DR","Mesa","No","Yes","Standard","12031.0","Southbound","-111.856383977516","33.4334241885582","104","","","","",190,"1",906.2567,"","AggieReverseGeocoder","",4.01,"13533025","1205 W ESPLANADE ST","Globe","AZ","85201","3809"
"427","-111.85646980861999","33.429033556472696","4427.0","15492.0","ALMA SCHOOL RD & 8TH ST","Mesa","No","Yes","Standard","4441.0","Southbound","-111.85646980861999","33.429033556472696","104","","","","",191,"1",859.3825,"","AggieReverseGeocoder","",4.01,"13532135A","1301 W 8TH ST","Globe","AZ","85201","3839"
"428","-111.85648369500299","33.4266418594938","4426.0","15493.0","ALMA SCHOOL RD & 7TH ST","Mesa","No","Yes","Standard","4440.0","Southbound","-111.85648369500299","33.4266418594938","104","","","","",192,"1",859.3732,"","AggieReverseGeocoder","",4.01,"13532082","630 N ALMA SCHOOL RD","Globe","AZ","85201","4632"
"429","-111.85662215734101","33.4216069134197","4435.0","15494.0","ALMA SCHOOL RD & UNIVERSITY DR","Mesa","No","Yes","Standard","4449.0","Southbound","-111.85662215734101","33.4216069134197","104","","","","",193,"1",765.6302,"","AggieReverseGeocoder","",4.01,"13550007K","1231 W UNIVERSITY DR","Globe","AZ","85201","5417"
"430","-111.856655019378","33.4187719971718","4438.0","15495.0","ALMA SCHOOL RD & 2ND ST","Mesa","No","Yes","Standard","4452.0","Southbound","-111.856655019378","33.4187719971718","104","","","","",194,"1",828.123,"","AggieReverseGeocoder","",4.01,"13550006P","210 N ALMA SCHOOL RD","Globe","AZ","85201","6238"
"431","-111.856819769401","33.4142787693302","5010.0","15496.0","ALMA SCHOOL RD & MAIN ST","Mesa","No","Yes","Standard","5024.0","Southbound","-111.856819769401","33.4142787693302","104","","","","",195,"1",968.7522,"","AggieReverseGeocoder","",4.01,"13431016","1201 W MAIN ST","Globe","AZ","85201","7018"
"432","-111.85691656052201","33.4069087735628","5004.0","15497.0","ALMA SCHOOL RD & BROADWAY RD","Mesa","No","Yes","Standard","5018.0","Southbound","-111.85691656052201","33.4069087735628","104","","","","",196,"1",1328.1742,"","AggieReverseGeocoder","",4.01,"13450300E","1215 W BROADWAY RD","Tempe","AZ","85202","1109"
"433","-111.85704497423599","33.4033565333037","5001.0","15498.0","ALMA SCHOOL RD & 6TH AVE","Mesa","No","Yes","Standard","5015.0","Southbound","-111.85704497423599","33.4033565333037","104","","","","",197,"1",1218.7502,"","AggieReverseGeocoder","",4.01,"13447098A","1217 W 6TH AVE","Tempe","AZ","85202","2113"
"434","-111.857182180818","33.3999319734679","5002.0","15499.0","ALMA SCHOOL RD & 8TH AVE","Mesa","No","Yes","Standard","5016.0","Southbound","-111.857182180818","33.3999319734679","104","","","","",198,"1",1359.3845,"","AggieReverseGeocoder","",4.01,"13419005L","815 S ALMA SCHOOL RD","Apache Junction","AZ","85210","2002"
"435","-111.857321073984","33.3964977136005","5006.0","15500.0","ALMA SCHOOL RD & EMERALD AVE","Mesa","No","Yes","Standard","5020.0","Southbound","-111.857321073984","33.3964977136005","104","","","","",199,"1",265.6328,"","AggieReverseGeocoder","",4.01,"13428379","1030 S STEWART","Tempe","AZ","85202","4448"
"436","-111.857394174671","33.3933384463042","5016.0","15501.0","ALMA SCHOOL RD & SOUTHERN AVE","Mesa","No","Yes","Standard","5030.0","Southbound","-111.857394174671","33.3933384463042","104","","","","",200,"1",1234.3755,"","AggieReverseGeocoder","",4.01,"13419007D","1110 W SOUTHERN AVE","Apache Junction","AZ","85210","4991"
"437","-111.86008799156299","33.390744132844","974.0","16294.0","STEWART & GROVE AVE","Mesa","No","Yes","Standard","990.0","Eastbound","-111.86008799156299","33.390744132844","104","","","","",201,"1",296.8779,"","AggieReverseGeocoder","",4.01,"13426001Q","1425 W SOUTHERN AVE","Tempe","AZ","85202","4814"
"438","-111.858154288671","33.383002820253","5008.0","15503.0","ALMA SCHOOL RD & ISABELLA AVE","Mesa","No","Yes","Standard","5022.0","Southbound","-111.858154288671","33.383002820253","104","","","","",202,"1",328.1303,"","AggieReverseGeocoder","",4.01,"13426322","1750 S ALMA SCHOOL RD","Apache Junction","AZ","85210","3016"
"439","-111.85996611780199","33.3780961108814","5003.0","15504.0","ALMA SCHOOL RD & BASELINE RD","Mesa","No","Yes","Standard","5017.0","Southbound","-111.85996611780199","33.3780961108814","104 | 541","","","","",203,"1",484.3758,"","AggieReverseGeocoder","",4.01,"30507569B","1205 W BASELINE RD","Tempe","AZ","85202","5855"
"440","-111.85970421486","33.374357133250605","5009.0","15505.0","ALMA SCHOOL RD & KILAREA AVE","Mesa","No","Yes","Standard","5023.0","Southbound","-111.85970421486","33.374357133250605","104 | 541","","","","",204,"1",1281.2531,"","AggieReverseGeocoder","",4.01,"30507293","2231 S CANTON","Tempe","AZ","85202","6648"
"441","-111.85953991435301","33.3710511247188","5011.0","15506.0","ALMA SCHOOL RD & MEDINA AVE","Mesa","No","Yes","Standard","5025.0","Southbound","-111.85953991435301","33.3710511247188","104 | 541","","","","",205,"1",1328.1203,"","AggieReverseGeocoder","",4.01,"30507114","1234 W MADERO AVE","Tempe","AZ","85202","7512"
"442","-111.859386881012","33.367875988722304","5013.0","15507.0","ALMA SCHOOL RD & MESETO AVE","Mesa","No","Yes","Standard","5027.0","Southbound","-111.859386881012","33.367875988722304","104","","","","",206,"1",1265.6328,"","AggieReverseGeocoder","",4.01,"30505494","2607 S CANTON","Tempe","AZ","85202","7506"
"443","-111.859270187617","33.3630021048414","5007.0","15508.0","ALMA SCHOOL RD & GUADALUPE RD","Mesa","No","Yes","Standard","5021.0","Southbound","-111.859270187617","33.3630021048414","104 | 541","","","","",207,"1",1343.7446,"","AggieReverseGeocoder","",4.01,"30206001Q","1225 W GUADALUPE RD","Tempe","AZ","85202","9101"
"444","-111.859231369859","33.3599998065855","5014.0","15509.0","ALMA SCHOOL RD & PECOS AVE","Mesa","No","Yes","Standard","5028.0","Southbound","-111.859231369859","33.3599998065855","104","","","","",208,"1",2328.1336,"","AggieReverseGeocoder","",4.01,"30206113","1209 W PECOS AVE","Tempe","AZ","85202","8131"
"482","-111.858941600286","33.360614998740694","3289.0","15472.0","ALMA SCHOOL RD & PECOS AVE","Mesa","No","Yes","Standard","3303.0","Northbound","-111.858941600286","33.360614998740694","104","","","","",209,"1",2265.6327,"","AggieReverseGeocoder","",4.01,"30277102","3006 S MOLLERA","Apache Junction","AZ","85210","8204"
"483","-111.858887318512","33.3649118003377","3282.0","15473.0","ALMA SCHOOL RD & GUADALUPE RD","Mesa","No","Yes","Standard","3296.0","Northbound","-111.858887318512","33.3649118003377","104 | 541","","","","",210,"1",1203.1468,"","AggieReverseGeocoder","",4.01,"30287819","1142 W GUADALUPE RD","Apache Junction","AZ","85210","7602"
"484","-111.859140822591","33.3685448679907","3288.0","15474.0","ALMA SCHOOL RD & MESETO AVE","Mesa","No","Yes","Standard","3302.0","Northbound","-111.859140822591","33.3685448679907","104","","","","",211,"1",1281.2553,"","AggieReverseGeocoder","",4.01,"30287429","2538 S MOLLERA CIR","Apache Junction","AZ","85210","7636"
"485","-111.859296237145","33.3717855172041","3287.0","15475.0","ALMA SCHOOL RD & MEDINA AVE","Mesa","No","Yes","Standard","3301.0","Northbound","-111.859296237145","33.3717855172041","104 | 541","","","","",212,"1",1484.377,"","AggieReverseGeocoder","",4.01,"30204001P","2355 S ALMA SCHOOL RD","Apache Junction","AZ","85210","4011"
"486","-111.85945735473699","33.3749639039085","3286.0","15476.0","ALMA SCHOOL RD & KILAREA AVE","Mesa","No","Yes","Standard","3300.0","Northbound","-111.85945735473699","33.3749639039085","104 | 541","","","","",213,"1",1171.8869,"","AggieReverseGeocoder","",4.01,"30204141","2162 S MOLLERA","Apache Junction","AZ","85210","6711"
"487","-111.85960208293699","33.3791082069523","3279.0","15477.0","ALMA SCHOOL RD & BASELINE RD","Mesa","No","Yes","Standard","3293.0","Northbound","-111.85960208293699","33.3791082069523","104","","","","",214,"1",1265.6219,"","AggieReverseGeocoder","",4.01,"13426320B","1105 W BASELINE RD","Apache Junction","AZ","85210","5970"
"488","-111.857779771227","33.3829737973873","3284.0","15478.0","ALMA SCHOOL RD & ISABELLA AVE","Mesa","No","Yes","Standard","3298.0","Northbound","-111.857779771227","33.3829737973873","104","","","","",215,"1",1171.8754,"","AggieReverseGeocoder","",4.01,"13426317A","1811 S ALMA SCHOOL RD","Apache Junction","AZ","85210","3001"
"489","-111.857046708726","33.388720823601","3283.0","15479.0","ALMA SCHOOL RD & HOLMES AVE","Mesa","No","Yes","Standard","3297.0","Northbound","-111.857046708726","33.388720823601","104","","","","",216,"1",375.0016,"","AggieReverseGeocoder","",4.01,"13423029C","1365 S ALMA SCHOOL RD","Apache Junction","AZ","85210","2085"
"490","-111.856998761574","33.3936801121771","2728.0","15481.0","ALMA SCHOOL RD & SOUTHERN AVE","Mesa","No","Yes","Standard","2742.0","Northbound","-111.856998761574","33.3936801121771","104","","","","",217,"1",1218.7605,"","AggieReverseGeocoder","",4.01,"13419007D","1110 W SOUTHERN AVE","Apache Junction","AZ","85210","4991"
"491","-111.856954949508","33.397043971178604","2720.0","15482.0","ALMA SCHOOL RD & EMERALD AVE","Mesa","No","Yes","Standard","2734.0","Northbound","-111.856954949508","33.397043971178604","104","","","","",218,"1",1187.5008,"","AggieReverseGeocoder","",4.01,"13419098","1158 W EMERALD AVE","Apache Junction","AZ","85210","3413"
"492","-111.856804855047","33.4006681662876","2716.0","15483.0","ALMA SCHOOL RD & 8TH AVE","Mesa","No","Yes","Standard","2730.0","Northbound","-111.856804855047","33.4006681662876","104","","","","",219,"1",1312.5051,"","AggieReverseGeocoder","",4.01,"13413001N","753 S ALMA SCHOOL RD","Apache Junction","AZ","85210","1065"
"493","-111.85672546970899","33.4032321717351","2713.0","15484.0","ALMA SCHOOL RD & 6TH AVE","Mesa","No","Yes","Standard","2727.0","Northbound","-111.85672546970899","33.4032321717351","104","","","","",220,"1",1343.7546,"","AggieReverseGeocoder","",4.01,"13413001J","601 S ALMA SCHOOL RD","Apache Junction","AZ","85210","1061"
"494","-111.85649723162399","33.408049883306695","2717.0","15485.0","ALMA SCHOOL RD & BROADWAY RD","Mesa","No","Yes","Standard","2731.0","Northbound","-111.85649723162399","33.408049883306695","104","","","","",221,"1",1156.2528,"","AggieReverseGeocoder","",4.01,"13405002N","333 S ALMA SCHOOL RD","Apache Junction","AZ","85210","1012"
"495","-111.856411550145","33.415386221149305","2724.0","15487.0","ALMA SCHOOL RD & MAIN ST","Mesa","No","Yes","Standard","2738.0","Northbound","-111.856411550145","33.415386221149305","104","","","","",222,"1",828.1248,"","AggieReverseGeocoder","",4.01,"13553055A","1156 W MAIN ST","Globe","AZ","85201","7112"
"496","-111.85633468814899","33.4188216042597","2714.0","15488.0","ALMA SCHOOL RD & 2ND ST","Mesa","No","Yes","Standard","2728.0","Northbound","-111.85633468814899","33.4188216042597","104","","","","",223,"1",671.8819,"","AggieReverseGeocoder","",4.01,"13554054","1144 W 2ND ST","Globe","AZ","85201","6303"
"497","-111.85624795292","33.4225331739596","2730.0","15489.0","ALMA SCHOOL RD & UNIVERSITY DR","Mesa","No","Yes","Standard","2744.0","Northbound","-111.85624795292","33.4225331739596","104","","","","",224,"1",421.8666,"","AggieReverseGeocoder","",4.01,"13530058A","1158 W UNIVERSITY DR","Globe","AZ","85201","5525"
"498","-111.856156943107","33.4271001832756","2715.0","15490.0","ALMA SCHOOL RD & 7TH ST","Mesa","No","Yes","Standard","2729.0","Northbound","-111.856156943107","33.4271001832756","104","","","","",225,"1",296.8752,"","AggieReverseGeocoder","",4.01,"13529003","705 N ALMA SCHOOL RD","Globe","AZ","85201","4633"
"499","-111.856081480515","33.4331855638738","9443.0","18418.0","N ALMA SCHOOL RD & W 10TH ST","Mesa","No","Yes","Standard","12073.0","Northbound","-111.856081480515","33.4331855638738","104","","","","",226,"1",281.2543,"","AggieReverseGeocoder","",4.01,"13520077A","1142 W 10TH ST","Globe","AZ","85201","3928"
"530","-111.687442873636","33.3657298951658","3478.0","15850.0","POWER RD & GUADALUPE RD","Mesa","No","Yes","Standard","3492.0","Northbound","-111.687442873636","33.3657298951658","108 | 184","","","","",227,"1",359.3728,"","AggieReverseGeocoder","",4.01,"30405977A","2657 S POWER RD","Mesa","AZ","85209","6675"
"531","-111.68754931732501","33.3686469086888","8979.0","17487.0","POWER RD & MONTEREY AV","Mesa","No","Yes","Standard","11508.0","Northbound","-111.68754931732501","33.3686469086888","108 | 184","","","","",228,"1",249.9985,"","AggieReverseGeocoder","",4.01,"30907001","7105 E MONTE AVE","Mesa","AZ","85209","4854"
"532","-111.68760866134501","33.3721792025092","8876.0","16737.0","Power Rd & Madero Ave","Mesa","No","Yes","Standard","11290.0","Northbound","-111.68760866134501","33.3721792025092","108 | 184","","","","",229,"1",296.8773,"","AggieReverseGeocoder","",4.01,"30908371","6840 E MADERO AVE","Mesa","AZ","85209","6683"
"533","-111.687250083214","33.3791601322898","9212.0","18260.0","E BASELINE RD & S POWER RD","Mesa","No","Yes","Standard","11710.0","Eastbound","-111.687250083214","33.3791601322898","108","","","","",230,"1",156.247,"","AggieReverseGeocoder","",4.01,"30405008D","6807 E BASELINE RD","Mesa","AZ","85209","4807"
"534","-111.683819957108","33.3792380189974","9213.0","18261.0","E BASELINE RD & S ROSLYN","Mesa","No","Yes","Standard","11717.0","Eastbound","-111.683819957108","33.3792380189974","108","","","","",231,"1",703.1324,"","AggieReverseGeocoder","",4.01,"30405987A","6955 E BASELINE RD","Mesa","AZ","85209","4808"
"535","-111.671628062791","33.3791750758472","9215.0","18263.0","E BASELINE RD & S AVOCA","Mesa","No","Yes","Standard","11719.0","Eastbound","-111.671628062791","33.3791750758472","108","","","","",232,"1",1234.4018,"","AggieReverseGeocoder","",4.01,"30908177","7454 E KNOWLES AVE","Mesa","AZ","85209","6212"
"536","-111.66719940120001","33.3791461525172","78.0","15851.0","BASELINE RD & SOSSAMAN RD","Mesa","No","Yes","Standard","94.0","Eastbound","-111.66719940120001","33.3791461525172","108","","","","",233,"1",1437.5007,"","AggieReverseGeocoder","",4.01,"21857003V","7610 E BASELINE RD","Mesa","AZ","85209","5002"
"537","-111.662524981681","33.3791636843405","9216.0","","E BASELINE RD & S FARNSWORTH DR","Mesa","No","Yes","Standard","11724.0","Eastbound","-111.662524981681","33.3791636843405","108","","","","",234,"1",593.7496,"","AggieReverseGeocoder","",4.01,"30902022","7950 E KEATS AVE","Mesa","AZ","85209","5012"
"538","-111.660913561192","33.3788402031441","5086.0","15852.0","FARNSWORTH DR & BASELINE RD","Mesa","No","Yes","Standard","5100.0","Southbound","-111.660913561192","33.3788402031441","108","","","","",235,"1",546.8769,"","AggieReverseGeocoder","",4.01,"30902007","7950 E KEATS AVE","Mesa","AZ","85209","5012"
"539","-111.66126663701","33.3760958343778","3352.0","15853.0","FARNSWORTH DR & KIOWA ST","Mesa","No","Yes","Standard","3366.0","Northbound","-111.66126663701","33.3760958343778","108","","","","",236,"1",656.2531,"","AggieReverseGeocoder","",4.01,"30405381","2145 S FARNSWORTH DR","Mesa","AZ","85209","5033"
"540","-111.66309117498999","33.379357946798","5370.0","15854.0","BASELINE RD & 78TH ST","Mesa","No","Yes","Standard","5384.0","Westbound","-111.66309117498999","33.379357946798","108","","","","",237,"1",890.6286,"","AggieReverseGeocoder","",4.01,"21858356","7726 E BASELINE RD","Mesa","AZ","85209","5039"
"541","-111.667691225767","33.3793623003302","5376.0","15855.0","BASELINE RD & SOSSAMAN RD","Mesa","No","Yes","Standard","5390.0","Westbound","-111.667691225767","33.3793623003302","108","","","","",238,"1",1359.3192,"","AggieReverseGeocoder","",4.01,"21856312","7546 E BASELINE RD","Mesa","AZ","85209","4904"
"542","-111.687694407814","33.380049882033504","3475.0","15856.0","POWER RD & BASELINE RD","Mesa","No","Yes","Standard","3489.0","Northbound","-111.687694407814","33.380049882033504","108 | 184","","","","",239,"1",156.2637,"","AggieReverseGeocoder","",4.01,"14154165","1959 S POWER RD","Mesa","AZ","85206","3762"
"543","-111.689096783026","33.3876415766442","8833.0","12581.0","SUPERSTITION SPRINGS TRANSIT CENTER","Mesa","Yes","Yes","Transit Center","11087.0","Other","-111.689096783026","33.3876415766442","40 | 45 | 61 | 108 | 184","","","","",240,"1",921.9052,"","AggieReverseGeocoder","",4.01,"14154660B","6626 E SUPERSTITION SPRINGS BLVD","Mesa","AZ","85206","4324"
"544","-111.68505854778499","33.3896394155726","8999.0","17105.0","POWER RD & HAMPTON AVE","Mesa","No","Yes","Standard","11434.0","Southbound","-111.68505854778499","33.3896394155726","108 | 184","","","","",241,"1",1078.2505,"","AggieReverseGeocoder","",4.01,"14154036F","1430 S POWER RD","Mesa","AZ","85206","3706"
"545","-111.685560123697","33.3834874663147","5221.0","15858.0","POWER RD & SUPERSTITION SPRINGS BLVD","Mesa","No","Yes","Standard","5235.0","Southbound","-111.685560123697","33.3834874663147","108 | 184","","","","",242,"1",140.63,"","AggieReverseGeocoder","",4.01,"14154019B","1750 S POWER RD","Mesa","AZ","85206","4306"
"617","-111.92739062485201","33.4583270173752","9627.0","11979.0","Continental Dr & Bull Run St","Tempe","No","Yes","Standard","","Eastbound","-111.92739062485201","33.4583270173752","68CM","","","","",243,"1",265.6277,"","AggieReverseGeocoder","",4.01,"12916010B","805 E CONTINENTAL DR","Mesa","AZ","85281","1060"
"634","-111.927203749979","33.458516671862505","9643.0","18375.0","Continental Dr - Scottsdale Rd","Tempe","No","Yes","Standard","","Westbound","-111.927203749979","33.458516671862505","EART | 68CM","","","","",244,"1",2156.2687,"","AggieReverseGeocoder","",4.01,"12913002G","1000 N SCOTTSDALE RD","Phoenix","AZ","85257","3426"
"637","-111.922360432735","33.4511126986135","9651.0","13174.0","McKellips Rd & 74th St","Tempe","No","Yes","Standard","","Eastbound","-111.922360432735","33.4511126986135","SNTR | EART","","","","",245,"1",2375.0055,"","AggieReverseGeocoder","",4.01,"13205091","1043 E MCKELLIPS RD","Mesa","AZ","85281","1303"
"639","-111.842367228824","33.3724914634232","9548.0","18597.0","Country Club Dr & Desert Ln","Mesa","No","Yes","Standard","","Southbound","-111.842367228824","33.3724914634232","112","","","","",246,"1",796.951,"","AggieReverseGeocoder","",4.01,"30209060","1301 N ARIZONA AVE","Florence","AZ","85233","1600"
"642","-111.85609569564899","33.4298633772576","9652.0","17097.0","Alma School Rd & 8th St","Mesa","No","Yes","Standard","","Northbound","-111.85609569564899","33.4298633772576","104","","","","",247,"1",187.4953,"","AggieReverseGeocoder","",4.01,"13521031D","1154 W 8TH ST","Globe","AZ","85201","3907"
"643","-111.680290925657","33.379207220928194","9214.0","18262.0","Baseline Rd & Superstition Springs Blvd","Mesa","No","Yes","Standard","11718.0","Eastbound","-111.680290925657","33.379207220928194","108","","","","",248,"1",2171.8831,"","AggieReverseGeocoder","",4.01,"30405052A","7025 E BASELINE RD","Mesa","AZ","85209","4803"
"644","-111.681197511414","33.3794866965802","9653.0","18284.0","Baseline Rd & Superstition Springs Blvd","Mesa","No","Yes","Standard","","Westbound","-111.681197511414","33.3794866965802","108","","","","",249,"1",859.3771,"","AggieReverseGeocoder","",4.01,"21856713A","7060 E BASELINE RD","Mesa","AZ","85209","4806"
"659","-111.685895886042","33.307013562165","9431.0","18321.0","WILLIAMS FIELD RD & D ST SAGEWOOD","Mesa","No","Yes","Standard","12079.0","Westbound","-111.685895886042","33.307013562165","156","","","","",250,"1",953.1251,"","AggieReverseGeocoder","",4.01,"30438015H","18256 E WILLIAMS FIELD RD","Gilbert","AZ","85295","6801"
"660","-111.680247679342","33.3088860294434","9464.0","18323.0","WILLIAMS CAMPUS LOOP N & WILLIAMS CAMPUS LOOP E","Mesa","No","Yes","Standard","10127.0","Eastbound","-111.680247679342","33.3088860294434","156","","","","",251,"1",656.2498,"","AggieReverseGeocoder","",4.01,"30437004E","5835 S SOSSAMAN RD","Mesa","AZ","85212","6014"
"661","-111.68314367162901","33.3072763024361","8980.0","18322.0","WILLIAMS FIELD RD & EDGEWATER","Mesa","No","Yes","Standard","11407.0","Westbound","-111.68314367162901","33.3072763024361","156 | 184","","","","",252,"1",671.8754,"","AggieReverseGeocoder","",4.01,"30438015H","18256 E WILLIAMS FIELD RD","Gilbert","AZ","85295","6801"
"745","-111.89741716862801","33.3451156473348","5255.0","15807.0","RIVER PKWY & TECHNOLOGY CIR","Tempe","Yes","Yes","Standard","5269.0","Southbound","-111.89741716862801","33.3451156473348","108","","","","",253,"1",4093.8441,"","AggieReverseGeocoder","",4.01,"30279217","2555 N PRICE RD","Chandler","AZ","85224","1686"
"755","-111.904626312416","33.4308760742719","9564.0","14167.0","TEMPE MARKETPLACE","Tempe","No","Yes","Standard","10453.0","Northbound","-111.904626312416","33.4308760742719","62 | 81 | EART","","","","",254,"1",1546.8439,"","AggieReverseGeocoder","",4.01,"13235973","2000 E RIO SALADO PKWY","Mesa","AZ","85281","4877"
"756","-111.771704435234","33.4228190374045","6068.0","12148.0","UNIVERSITY DR & LINDSAY RD","Mesa","No","Yes","Standard","6082.0","Westbound","-111.771704435234","33.4228190374045","30","","","","",255,"1",890.6262,"","AggieReverseGeocoder","",4.01,"14010441","2740 E UNIVERSITY DR","Mesa","AZ","85213","8452"
"757","-111.777149963016","33.4225456655586","827.0","12103.0","UNIVERSITY DR & 25TH ST","Mesa","No","Yes","Standard","843.0","Eastbound","-111.777149963016","33.4225456655586","30","","","","",256,"1",1062.5037,"","AggieReverseGeocoder","",4.01,"14023281","2512 E BALTIMORE ST","Mesa","AZ","85213","8408"
"918","-111.874335580595","33.4313604321844","8934.0","15403.0","DOBSON RD & RIVERVIEW DR","Mesa","No","Yes","Standard","11433.0","Southbound","-111.874335580595","33.4313604321844","96","","","","",257,"1",1453.1267,"","AggieReverseGeocoder","",4.01,"13533555","901 N DOBSON RD","Globe","AZ","85201","7573"
"919","-111.87443990094201","33.429097735500996","9147.0","18234.0","N DOBSON RD & W 8TH ST","Mesa","No","Yes","Standard","11636.0","Southbound","-111.87443990094201","33.429097735500996","96","","","","",258,"1",1234.378,"","AggieReverseGeocoder","",4.01,"13537141","755 N SANTA ANNA","Globe","AZ","85201","4429"
"920","-111.874492821681","33.4256655168659","9441.0","18294.0","N DOBSON RD & W DECATUR ST","Mesa","No","Yes","Standard","12071.0","Southbound","-111.874492821681","33.4256655168659","96","","","","",259,"1",1468.7504,"","AggieReverseGeocoder","",4.01,"13537036","563 N SANTA ANNA","Globe","AZ","85201","4425"
"921","-111.874561980487","33.4215787706624","4582.0","12076.0","DOBSON RD & UNIVERSITY DR","Mesa","No","Yes","Standard","4596.0","Southbound","-111.874561980487","33.4215787706624","30 | 96","","","","",260,"1",1609.3794,"","AggieReverseGeocoder","",4.01,"13546117K","2015 W UNIVERSITY DR","Globe","AZ","85201","5203"
"922","-111.874560801194","33.418283219127495","4574.0","12077.0","DOBSON RD & 2ND ST","Mesa","No","Yes","Standard","4588.0","Southbound","-111.874560801194","33.418283219127495","30 | 96","","","","",261,"1",1312.5083,"","AggieReverseGeocoder","",4.01,"13547150","2012 W 1ST PL","Globe","AZ","85201","6006"
"923","-111.874662470079","33.4126693695218","5070.0","13117.0","DOBSON RD & 1ST AVE","Mesa","No","Yes","Standard","5084.0","Southbound","-111.874662470079","33.4126693695218","45 | 96","","","","",262,"1",1328.11,"","AggieReverseGeocoder","",4.01,"13433972A","66 S DOBSON RD","Tempe","AZ","85202","1094"
"924","-111.87475264052601","33.406960227367705","5073.0","15404.0","DOBSON RD & BROADWAY RD","Mesa","No","Yes","Standard","5087.0","Southbound","-111.87475264052601","33.406960227367705","96","","","","",263,"1",1328.1381,"","AggieReverseGeocoder","",4.01,"13439875","2005 W BROADWAY RD","Tempe","AZ","85202","1164"
"925","-111.874743913259","33.403160430079105","5081.0","15405.0","BROADWAY RD & 8TH AVE","Mesa","No","Yes","Standard","5095.0","Southbound","-111.874743913259","33.403160430079105","96","","","","",264,"1",1328.0979,"","AggieReverseGeocoder","",4.01,"13439566","600 S DOBSON RD","Tempe","AZ","85202","1811"
"926","-111.874756552792","33.3999697529971","5071.0","15406.0","DOBSON RD & 8TH AVE","Mesa","No","Yes","Standard","5085.0","Southbound","-111.874756552792","33.3999697529971","96","","","","",265,"1",1406.2529,"","AggieReverseGeocoder","",4.01,"13439507A","830 S DOBSON RD","Tempe","AZ","85202","2952"
"927","-111.874769059921","33.396497222365","5074.0","15407.0","DOBSON RD & EMERALD AVE","Mesa","No","Yes","Standard","5088.0","Southbound","-111.874769059921","33.396497222365","96","","","","",266,"1",875.0072,"","AggieReverseGeocoder","",4.01,"13442009E","1030 S DOBSON RD","Tempe","AZ","85202","2916"
"928","-111.8748236258","33.3925642916961","5080.0","15408.0","DOBSON RD & SOUTHERN AVE","Mesa","No","Yes","Standard","5094.0","Southbound","-111.8748236258","33.3925642916961","96","","","","",267,"1",953.1191,"","AggieReverseGeocoder","",4.01,"13442009G","2012 W SOUTHERN AVE","Tempe","AZ","85202","4702"
"929","-111.87485561623501","33.3887136446271","5083.0","15409.0","SOUTHERN AVE & US 60","Mesa","No","Yes","Standard","5097.0","Southbound","-111.87485561623501","33.3887136446271","96","","","","",268,"1",968.7549,"","AggieReverseGeocoder","",4.01,"13443014B","1400 S DOBSON RD","Tempe","AZ","85202","4707"
"930","-111.875658966727","33.3825666024147","5075.0","15410.0","DOBSON RD & ISABELLA AVE","Mesa","No","Yes","Standard","5089.0","Southbound","-111.875658966727","33.3825666024147","96","","","","",269,"1",968.7462,"","AggieReverseGeocoder","",4.01,"30502412","2524 W CAMPO ALEGRE CIR","Tempe","AZ","85202","5465"
"931","-111.87808732298099","33.377786719677","9092.0","15412.0","S DOBSON RD & W BASELINE RD","Mesa","No","Yes","Standard","11462.0","Southbound","-111.87808732298099","33.377786719677","96","","","","",270,"1",1000.0083,"","AggieReverseGeocoder","",4.01,"30509391","2058 S DOBSON RD","Tempe","AZ","85202","6454"
"932","-111.87961735683099","33.375184101399604","8928.0","15413.0","DOBSON & LINDNER","Mesa","No","Yes","Standard","11358.0","Southbound","-111.87961735683099","33.375184101399604","96","","","","",271,"1",953.1272,"","AggieReverseGeocoder","",4.01,"30510136","2204 S DOBSON RD","Tempe","AZ","85202","6457"
"933","-111.88040792046499","33.371591760753304","8927.0","15414.0","DOBSON & LOS LAGOS VISTA","Mesa","No","Yes","Standard","11357.0","Southbound","-111.88040792046499","33.371591760753304","96","","","","",272,"1",1031.2485,"","AggieReverseGeocoder","",4.01,"30509716","2018 W LOBO CIR","Tempe","AZ","85202","6449"
"934","-111.87756218514099","33.3670247107207","8930.0","15415.0","DOBSON & KEATING","Mesa","No","Yes","Standard","11360.0","Southbound","-111.87756218514099","33.3670247107207","96","","","","",273,"1",953.1203,"","AggieReverseGeocoder","",4.01,"30509908","2715 S SANTA BARBARA","Tempe","AZ","85202","7346"
"935","-111.87678515171301","33.3631876671723","8931.0","15416.0","DOBSON & GUADALUPE","Mesa","No","Yes","Standard","11361.0","Southbound","-111.87678515171301","33.3631876671723","96","","","","",274,"1",421.876,"","AggieReverseGeocoder","",4.01,"30286514","2039 W GUADALUPE RD","Tempe","AZ","85202","7339"
"936","-111.876694607632","33.3601852240762","8932.0","15417.0","DOBSON & PORTOBELLO","Mesa","No","Yes","Standard","11362.0","Southbound","-111.876694607632","33.3601852240762","96","","","","",275,"1",968.7629,"","AggieReverseGeocoder","",4.01,"30205365","3009 S SANTA BARBARA CIR","Tempe","AZ","85202","7966"
"992","-111.895368758504","33.3495240894637","5626.0","15899.0","ELLIOT RD & PRICE RD","Tempe","No","Yes","Standard","5640.0","Westbound","-111.895368758504","33.3495240894637","108","","","","",276,"1",2234.3812,"","AggieReverseGeocoder","",4.01,"30149006G","2100 E ELLIOT RD","Tempe","AZ","85284","1806"
"993","-111.898266934468","33.349394613543204","5628.0","15900.0","ELLIOT RD & RIVER PKWY","Tempe","No","Yes","Standard","5642.0","Westbound","-111.898266934468","33.349394613543204","108","","","","",277,"1",2000.0046,"","AggieReverseGeocoder","",4.01,"30149006G","2100 E ELLIOT RD","Tempe","AZ","85284","1806"
"994","-111.903251043326","33.3493461418104","5621.0","15901.0","ELLIOT RD & COUNTRY CLUB WY","Tempe","No","Yes","Standard","5635.0","Westbound","-111.903251043326","33.3493461418104","108 | 522","","","","",278,"1",1250.0024,"","AggieReverseGeocoder","",4.01,"30811363","1983 E BRENTRUP DR","Mesa","AZ","85283","4926"
"995","-111.90719654410101","33.349320110320804","5624.0","15902.0","ELLIOT RD & LOS FELIZ DR","Tempe","No","Yes","Standard","5638.0","Westbound","-111.90719654410101","33.349320110320804","108 | 522","","","","",279,"1",1234.3762,"","AggieReverseGeocoder","",4.01,"30149691","401 W BASELINE RD","Mesa","AZ","85283","5348"
"996","-111.911932095562","33.3492459886418","5625.0","15903.0","ELLIOT RD & MCCLINTOCK DR","Tempe","No","Yes","Standard","5639.0","Westbound","-111.911932095562","33.3492459886418","108 | 522","","","","",280,"1",1312.4986,"","AggieReverseGeocoder","",4.01,"30148003L","1760 E ELLIOT RD","Tempe","AZ","85284","1633"
"997","-111.915241636698","33.349257757867306","5630.0","15904.0","ELLIOT RD & WILLOW DR","Tempe","No","Yes","Standard","5644.0","Westbound","-111.915241636698","33.349257757867306","108 | 522","","","","",281,"1",1359.3823,"","AggieReverseGeocoder","",4.01,"30805004","7580 S WILLOW DR","Mesa","AZ","85283","5004"
"998","-111.92006014316601","33.3492960498444","5623.0","15905.0","ELLIOT RD & LAKESHORE DR","Tempe","No","Yes","Standard","5637.0","Westbound","-111.92006014316601","33.3492960498444","108 | 522","","","","",282,"1",1828.1331,"","AggieReverseGeocoder","",4.01,"30192418","1265 E BRENTRUP DR","Mesa","AZ","85283","4701"
"999","-111.92374945862","33.3492954163178","5627.0","15906.0","ELLIOT RD & RITA LN","Tempe","No","Yes","Standard","5641.0","Westbound","-111.92374945862","33.3492954163178","108 | 522","","","","",283,"1",1734.3756,"","AggieReverseGeocoder","",4.01,"30191939","7411 S RITA LN","Mesa","AZ","85283","4778"
"1000","-111.92888697727301","33.349323596034495","5629.0","15907.0","ELLIOT RD & RURAL RD","Tempe","No","Yes","Standard","5643.0","Westbound","-111.92888697727301","33.349323596034495","108","","","","",284,"1",968.7525,"","AggieReverseGeocoder","",4.01,"30147459E","7550 S RURAL RD","Mesa","AZ","85283","4659"
"1001","-111.93357223728901","33.3493146498144","5632.0","15908.0","ELLIOT RD & COLLEGE AVE","Tempe","No","Yes","Standard","5646.0","Westbound","-111.93357223728901","33.3493146498144","108","","","","",285,"1",1156.3175,"","AggieReverseGeocoder","",4.01,"30147621","7527 S COLLEGE AVE","Mesa","AZ","85283","4623"
"1002","-111.937404836505","33.3493105513329","6571.0","15909.0","MILL AVE & DATELAND DR","Tempe","No","Yes","Standard","6585.0","Westbound","-111.937404836505","33.3493105513329","108","","","","",286,"1",1109.3701,"","AggieReverseGeocoder","",4.01,"30147008B","800 E DIVOT DR","Mesa","AZ","85283","4607"
"1003","-111.939419645963","33.3493358343242","6548.0","15910.0","ELLIOT RD & DATELAND DR","Tempe","No","Yes","Standard","6562.0","Westbound","-111.939419645963","33.3493358343242","108","","","","",287,"1",687.5046,"","AggieReverseGeocoder","",4.01,"30813753","7631 S DATELAND DR","Tempe","AZ","85284","1315"
"1004","-111.94645767783301","33.3493713969088","6567.0","15911.0","ELLIOT RD & KYRENE RD","Tempe","No","Yes","Standard","6581.0","Westbound","-111.94645767783301","33.3493713969088","108","","","","",288,"1",578.1266,"","AggieReverseGeocoder","",4.01,"30190013","550 W ELLIOT RD","Tempe","AZ","85284","1200"
"1005","-111.950850939451","33.3493055535985","6569.0","15912.0","ELLIOT RD & ROOSEVELT ST","Tempe","No","Yes","Standard","6583.0","Westbound","-111.950850939451","33.3493055535985","108","","","","",289,"1",687.4986,"","AggieReverseGeocoder","",4.01,"30190022","850 W ELLIOT RD","Tempe","AZ","85284","1206"
"1006","-111.95501797377399","33.3492971454326","6565.0","15913.0","ELLIOT RD & HARDY DR","Tempe","No","Yes","Standard","6579.0","Westbound","-111.95501797377399","33.3492971454326","108","","","","",290,"1",328.1475,"","AggieReverseGeocoder","",4.01,"30146039","1010 W ELLIOT RD","Tempe","AZ","85284","1115"
"1007","-111.958891529776","33.3492864135279","6570.0","15914.0","HARDY DR & PRIEST DR","Tempe","No","Yes","Standard","6584.0","Westbound","-111.958891529776","33.3492864135279","108","","","","",291,"1",828.1078,"","AggieReverseGeocoder","",4.01,"30146155","1230 W ELLIOT RD","Tempe","AZ","85284","1100"
"1008","-111.963922458659","33.3492593628728","6568.0","13656.0","ELLIOT RD & PRIEST DR","Tempe","No","Yes","Standard","6582.0","Westbound","-111.963922458659","33.3492593628728","108 | 522","","","","",292,"1",812.5054,"","AggieReverseGeocoder","",4.01,"30141762","7530 S PRIEST DR","Mesa","AZ","85283","4301"
"1009","-111.96646928183","33.349240101545","6566.0","13657.0","ELLIOT RD & HARL AVE","Tempe","No","Yes","Standard","6580.0","Westbound","-111.96646928183","33.349240101545","108","","","","",293,"1",906.2533,"","AggieReverseGeocoder","",4.01,"30141134D","1800 W ELLIOT RD","Tempe","AZ","85284","1004"
"1010","-111.965279494029","33.3489401463307","9453.0","18443.0","W ELLIOT RD & AUTOPLEX S HARL AV","Tempe","No","Yes","Standard","12077.0","Eastbound","-111.965279494029","33.3489401463307","108","","","","",294,"1",2609.3802,"","AggieReverseGeocoder","",4.01,"30154006H","1655 W ELLIOT RD","Tempe","AZ","85284","1013"
"1011","-111.96253428868201","33.3489415963874","1280.0","15790.0","ELLIOT RD & PRIEST DR","Tempe","No","Yes","Standard","1296.0","Eastbound","-111.96253428868201","33.3489415963874","108 | 522","","","","",295,"1",828.1286,"","AggieReverseGeocoder","",4.01,"30153012P","1245 W ELLIOT RD","Tempe","AZ","85284","1113"
"1012","-111.957863466597","33.348994352023894","1281.0","15791.0","PRIEST DR & HARDY DR","Tempe","No","Yes","Standard","1297.0","Eastbound","-111.957863466597","33.348994352023894","108","","","","",296,"1",828.1215,"","AggieReverseGeocoder","",4.01,"30153062","1245 W ELLIOT RD","Tempe","AZ","85284","1113"
"1013","-111.953708782981","33.3489636814175","1275.0","15792.0","ELLIOT RD & HARDY DR","Tempe","No","Yes","Standard","1291.0","Eastbound","-111.953708782981","33.3489636814175","108","","","","",297,"1",781.2524,"","AggieReverseGeocoder","",4.01,"30153045A","995 W ELLIOT RD","Tempe","AZ","85284","1138"
"1014","-111.94947544232001","33.349035694612006","1263.0","15793.0","ELLIOT RD & ROOSEVELT ST","Tempe","No","Yes","Standard","1279.0","Eastbound","-111.94947544232001","33.349035694612006","108","","","","",298,"1",906.2584,"","AggieReverseGeocoder","",4.01,"30190010B","780 W ELLIOT RD","Tempe","AZ","85284","1210"
"1015","-111.944965172581","33.349012084635895","333.0","15794.0","ELLIOT RD & KYRENE RD","Tempe","No","Yes","Standard","349.0","Eastbound","-111.944965172581","33.349012084635895","108","","","","",299,"1",703.1257,"","AggieReverseGeocoder","",4.01,"30152982","383 W ELLIOT RD","Tempe","AZ","85284","1303"
"1016","-111.93923068485901","33.3490632158782","330.0","15795.0","ELLIOT RD & DATELAND DR","Tempe","No","Yes","Standard","346.0","Eastbound","-111.93923068485901","33.3490632158782","108","","","","",300,"1",562.4953,"","AggieReverseGeocoder","",4.01,"30813753","7631 S DATELAND DR","Tempe","AZ","85284","1315"
"1017","-111.93677596114401","33.3490397628858","339.0","15796.0","ELLIOT RD & MILL AVE","Tempe","No","Yes","Standard","355.0","Eastbound","-111.93677596114401","33.3490397628858","108","","","","",301,"1",1203.1194,"","AggieReverseGeocoder","",4.01,"30815051","64 E SUNBURST LN","Tempe","AZ","85284","1487"
"1018","-111.933511684939","33.3490611251121","329.0","15797.0","ELLIOT RD & COLLEGE AVE","Tempe","No","Yes","Standard","345.0","Eastbound","-111.933511684939","33.3490611251121","108","","","","",302,"1",1093.7544,"","AggieReverseGeocoder","",4.01,"30815172","7603 S COLLEGE AVE","Tempe","AZ","85284","1434"
"1019","-111.927668640079","33.3490333337788","340.0","15798.0","ELLIOT RD & RURAL RD","Tempe","No","Yes","Standard","356.0","Eastbound","-111.927668640079","33.3490333337788","108 | 522","","","","",303,"1",1656.2528,"","AggieReverseGeocoder","",4.01,"30151016F","909 E ELLIOT RD","Tempe","AZ","85284","1552"
"1020","-111.923789663544","33.3490355384088","322.0","15799.0","ELLIOT RD & RITA LN","Tempe","No","Yes","Standard","338.0","Eastbound","-111.923789663544","33.3490355384088","108 | 522","","","","",304,"1",1703.121,"","AggieReverseGeocoder","",4.01,"30151390","1116 E SUNBURST LN","Tempe","AZ","85284","1548"
"1021","-111.919567479482","33.3490219423032","334.0","15800.0","ELLIOT RD & LAKESHORE DR","Tempe","No","Yes","Standard","350.0","Eastbound","-111.919567479482","33.3490219423032","108 | 522","","","","",305,"1",1421.8792,"","AggieReverseGeocoder","",4.01,"30151661","1302 E SUNBURST LN","Tempe","AZ","85284","1627"
"1022","-111.91538907374701","33.348998953295805","342.0","15801.0","ELLIOT RD & WILLOW DR","Tempe","No","Yes","Standard","358.0","Eastbound","-111.91538907374701","33.348998953295805","108 | 522","","","","",306,"1",1421.8923,"","AggieReverseGeocoder","",4.01,"30151274","7604 S WILLOW DR","Tempe","AZ","85284","1629"
"1023","-111.913403413846","33.3489418789108","343.0","15802.0","WILLOW DR & MCCLINTOCK DR","Tempe","No","Yes","Standard","359.0","Eastbound","-111.913403413846","33.3489418789108","108 | 522","","","","",307,"1",1453.079,"","AggieReverseGeocoder","",4.01,"30151844","7650 S MCCLINTOCK DR","Tempe","AZ","85284","1672"
"1024","-111.91069692314801","33.348965599847","338.0","15803.0","ELLIOT RD & MCCLINTOCK DR","Tempe","No","Yes","Standard","354.0","Eastbound","-111.91069692314801","33.348965599847","108 | 522","","","","",308,"1",453.1269,"","AggieReverseGeocoder","",4.01,"30150095C","7605 S MCCLINTOCK DR","Tempe","AZ","85284","1662"
"1025","-111.90646413300301","33.3490310728971","337.0","15804.0","ELLIOT RD & LOS FELIZ DR","Tempe","No","Yes","Standard","353.0","Eastbound","-111.90646413300301","33.3490310728971","108 | 522","","","","",309,"1",1453.1344,"","AggieReverseGeocoder","",4.01,"30150279","1920 E SUNBURST LN","Tempe","AZ","85284","1763"
"1026","-111.903073603711","33.3490691332313","323.0","15805.0","ELLIOT RD & COUNTRY CLUB WY","Tempe","No","Yes","Standard","339.0","Eastbound","-111.903073603711","33.3490691332313","108 | 522","","","","",310,"1",1578.125,"","AggieReverseGeocoder","",4.01,"30150320","1978 E SUNBURST LN","Tempe","AZ","85284","1761"
"1029","-111.876387546715","33.3579555181456","8933.0","15381.0","DOBSON & PAMPA","Mesa","No","Yes","Standard","11363.0","Northbound","-111.876387546715","33.3579555181456","96","","","","",311,"1",1515.6276,"","AggieReverseGeocoder","",4.01,"30205304","2015 W POSADA CIR","Tempe","AZ","85202","7982"
"1030","-111.876419435328","33.3606960269627","9097.0","16130.0","S DOBSON RD & W PORTOBELLO AV","Mesa","No","Yes","Standard","11507.0","Northbound","-111.876419435328","33.3606960269627","96","","","","",312,"1",859.3778,"","AggieReverseGeocoder","",4.01,"30278062","1948 W PECOS AVE","Tempe","AZ","85202","8052"
"1031","-111.876391796432","33.3646201009406","3341.0","15382.0","DOBSON RD & GUADALUPE RD","Mesa","No","Yes","Standard","3355.0","Northbound","-111.876391796432","33.3646201009406","96","","","","",313,"1",1062.5011,"","AggieReverseGeocoder","",4.01,"30505584","2766 S YUCCA","Tempe","AZ","85202","7460"
"1032","-111.87767546479401","33.3677824690874","5077.0","15383.0","DOBSON RD & KEATING AVE","Mesa","No","Yes","Standard","5091.0","Northbound","-111.87767546479401","33.3677824690874","96","","","","",314,"1",937.4988,"","AggieReverseGeocoder","",4.01,"30504159A","1960 W KEATING AVE","Tempe","AZ","85202","7002"
"1033","-111.87976426152001","33.3707798055231","8992.0","15384.0","DOBSON AT MESA LIBRARY","Mesa","No","Yes","Standard","12070.0","Northbound","-111.87976426152001","33.3707798055231","96","","","","",315,"1",1125.0091,"","AggieReverseGeocoder","",4.01,"30504158","2505 S DOBSON RD","Tempe","AZ","85202","7367"
"1034","-111.87811817668002","33.376645637488295","3343.0","17452.0","DOBSON RD & LINDNER AVE","Mesa","No","Yes","Standard","3357.0","Northbound","-111.87811817668002","33.376645637488295","96","","","","",316,"1",859.3781,"","AggieReverseGeocoder","",4.01,"30505567","1945 W BASELINE RD","Tempe","AZ","85202","9002"
"1035","-111.877430146354","33.3789424140689","3338.0","15386.0","DOBSON RD & BASELINE RD","Mesa","No","Yes","Standard","3352.0","Northbound","-111.877430146354","33.3789424140689","96","","","","",317,"1",390.6232,"","AggieReverseGeocoder","",4.01,"30502428T","1960 W BASELINE RD","Tempe","AZ","85202","9017"
